OID_,FOD_ID,FPA_ID,SOURCE_SYSTEM_TYPE,SOURCE_SYSTEM,NWCG_REPORTING_AGENCY,NWCG_REPORTING_UNIT_ID,NWCG_REPORTING_UNIT_NAME,SOURCE_REPORTING_UNIT,SOURCE_REPORTING_UNIT_NAME,LOCAL_FIRE_REPORT_ID,LOCAL_INCIDENT_ID,FIRE_CODE,FIRE_NAME,ICS_209_PLUS_INCIDENT_JOIN_ID,ICS_209_PLUS_COMPLEX_JOIN_ID,MTBS_ID,MTBS_FIRE_NAME,COMPLEX_NAME,FIRE_YEAR,DISCOVERY_DATE,DISCOVERY_DOY,DISCOVERY_TIME,NWCG_CAUSE_CLASSIFICATION,NWCG_GENERAL_CAUSE,NWCG_CAUSE_AGE_CATEGORY,CONT_DATE,CONT_DOY,CONT_TIME,FIRE_SIZE,FIRE_SIZE_CLASS,LATITUDE,LONGITUDE,OWNER_DESCR,STATE,COUNTY,FIPS_CODE,FIPS_NAME
1,201642428,SFO-2012CACDFLNU000037,NONFED,ST-NASF,ST/C&L,USCALNU,Sonoma-Lake Napa Unit,CALNU,Sonoma-Lake Napa Unit,,LNU000037,,,,,,,,2012,1/6/2012 0:00,6,1122,Missing data/not specified/undetermined,Missing data/not specified/undetermined,,,,,0.01,A,38.459812,-122.746878,MISSING/NOT SPECIFIED,CA,SONOMA,6097,Sonoma County
2,201642429,SFO-2012CACDFLNU000069,NONFED,ST-NASF,ST/C&L,USCALNU,Sonoma-Lake Napa Unit,CALNU,Sonoma-Lake Napa Unit,,LNU000069,,,,,,,,2012,1/11/2012 0:00,11,50,Missing data/not specified/undetermined,Missing data/not specified/undetermined,,,,,0.01,A,38.433614,-122.711764,MISSING/NOT SPECIFIED,CA,SONOMA,6097,Sonoma County
3,201642430,SFO-2012CACDFLNU000101,NONFED,ST-NASF,ST/C&L,USCALNU,Sonoma-Lake Napa Unit,CALNU,Sonoma-Lake Napa Unit,,LNU000101,,,,,,,,2012,1/15/2012 0:00,15,1605,Human,Missing data/not specified/undetermined,,,,,0.01,A,38.451911,-122.669856,COUNTY,CA,SONOMA,6097,Sonoma County
4,201642434,SFO-2012CACDFLNU000169,NONFED,ST-NASF,ST/C&L,USCALNU,Sonoma-Lake Napa Unit,CALNU,Sonoma-Lake Napa Unit,,LNU000169,,HELM   THE_SEA_RANCH,,,,,,2012,1/8/2012 0:00,8,1539,Human,Debris and open burning,,,,,0.06,A,38.63729,-123.388647,MISSING/NOT SPECIFIED,CA,SONOMA,6097,Sonoma County
5,201642436,SFO-2012CACDFLNU000293,NONFED,ST-NASF,ST/C&L,USCALNU,Sonoma-Lake Napa Unit,CALNU,Sonoma-Lake Napa Unit,,LNU000293,,CRANE,,,,,,2012,1/14/2012 0:00,14,1629,Missing data/not specified/undetermined,Missing data/not specified/undetermined,,,,,0.1,A,38.367055,-122.65337,MISSING/NOT SPECIFIED,CA,SONOMA,6097,Sonoma County
6,201642437,SFO-2012CACDFLNU000326,NONFED,ST-NASF,ST/C&L,USCALNU,Sonoma-Lake Napa Unit,CALNU,Sonoma-Lake Napa Unit,,LNU000326,,WARM SPRINGS RD  KENWOOD,,,,,,2012,1/15/2012 0:00,15,1933,Human,Missing data/not specified/undetermined,,,,,0.1,A,38.393036,-122.549485,MISSING/NOT SPECIFIED,CA,SONOMA,6097,Sonoma County
7,201642438,SFO-2012CACDFLNU000344,NONFED,ST-NASF,ST/C&L,USCALNU,Sonoma-Lake Napa Unit,CALNU,Sonoma-Lake Napa Unit,,LNU000344,,HWY,,,,,,2012,1/16/2012 0:00,16,1248,Human,Debris and open burning,,,,,0.25,A,38.822383,-123.025368,MISSING/NOT SPECIFIED,CA,SONOMA,6097,Sonoma County
8,201642439,SFO-2012CACDFLNU000347,NONFED,ST-NASF,ST/C&L,USCALNU,Sonoma-Lake Napa Unit,CALNU,Sonoma-Lake Napa Unit,,LNU000347,,BODEGA,,,,,,2012,1/16/2012 0:00,16,1404,Human,Equipment and vehicle use,,,,,1,B,38.261158,-122.714835,MISSING/NOT SPECIFIED,CA,SONOMA,6097,Sonoma County
9,201642440,SFO-2012CACDFLNU000373,NONFED,ST-NASF,ST/C&L,USCALNU,Sonoma-Lake Napa Unit,CALNU,Sonoma-Lake Napa Unit,,LNU000373,,TRINITY,,,,,,2012,1/17/2012 0:00,17,1235,Human,Debris and open burning,,,,,1,B,38.37945,-122.514371,MISSING/NOT SPECIFIED,CA,SONOMA,6097,Sonoma County
10,201642441,SFO-2012CACDFLNU000390,NONFED,ST-NASF,ST/C&L,USCALNU,Sonoma-Lake Napa Unit,CALNU,Sonoma-Lake Napa Unit,,LNU000390,,KNOB HILL RD  SCHELLVILLE,,,,,,2012,1/18/2012 0:00,18,749,Human,Missing data/not specified/undetermined,,,,,0.25,A,38.252309,-122.421268,MISSING/NOT SPECIFIED,CA,SONOMA,6097,Sonoma County
11,201642442,SFO-2012CACDFLNU000404,NONFED,ST-NASF,ST/C&L,USCALNU,Sonoma-Lake Napa Unit,CALNU,Sonoma-Lake Napa Unit,,LNU000404,,,,,,,,2012,2/28/2012 0:00,59,1855,Human,Smoking,,,,,0.1,A,38.434912,-122.744245,MISSING/NOT SPECIFIED,CA,SONOMA,6097,Sonoma County
12,201642443,SFO-2012CACDFLNU000422,NONFED,ST-NASF,ST/C&L,USCALNU,Sonoma-Lake Napa Unit,CALNU,Sonoma-Lake Napa Unit,,LNU000422,,SHILOH,,,,,,2012,1/19/2012 0:00,19,938,Missing data/not specified/undetermined,Missing data/not specified/undetermined,,,,,0.25,A,38.544583,-122.745933,MISSING/NOT SPECIFIED,CA,SONOMA,6097,Sonoma County
13,201642444,SFO-2012CACDFLNU000447,NONFED,ST-NASF,ST/C&L,USCALNU,Sonoma-Lake Napa Unit,CALNU,Sonoma-Lake Napa Unit,,LNU000447,,,,,,,,2012,3/6/2012 0:00,66,1153,Missing data/not specified/undetermined,Missing data/not specified/undetermined,,,,,0.01,A,38.411762,-122.72938,MISSING/NOT SPECIFIED,CA,SONOMA,6097,Sonoma County
14,201642445,SFO-2012CACDFLNU000474,NONFED,ST-NASF,ST/C&L,USCALNU,Sonoma-Lake Napa Unit,CALNU,Sonoma-Lake Napa Unit,,LNU000474,,,,,,,,2012,3/10/2012 0:00,70,1327,Human,Smoking,,,,,0.1,A,38.439057,-122.708535,MISSING/NOT SPECIFIED,CA,SONOMA,6097,Sonoma County
15,201642448,SFO-2012CACDFLNU000802,NONFED,ST-NASF,ST/C&L,USCALNU,Sonoma-Lake Napa Unit,CALNU,Sonoma-Lake Napa Unit,,LNU000802,,MORELLI LN  OCCIDENTAL,,,,,,2012,2/4/2012 0:00,35,1639,Human,Debris and open burning,,,,,1,B,38.42959,-122.933372,MISSING/NOT SPECIFIED,CA,SONOMA,6097,Sonoma County
16,201642449,SFO-2012CACDFLNU000826,NONFED,ST-NASF,ST/C&L,USCALNU,Sonoma-Lake Napa Unit,CALNU,Sonoma-Lake Napa Unit,,LNU000826,,RICHARDSON,,,,,,2012,2/5/2012 0:00,36,1436,Human,Debris and open burning,,,,,0.5,B,38.63737,-123.388676,MISSING/NOT SPECIFIED,CA,SONOMA,6097,Sonoma County
17,201642450,SFO-2012CACDFLNU001044,NONFED,ST-NASF,ST/C&L,USCALNU,Sonoma-Lake Napa Unit,CALNU,Sonoma-Lake Napa Unit,,LNU001044,,TIMBER,,,,,,2012,2/15/2012 0:00,46,1513,Human,Debris and open burning,,,,,1,B,38.526491,-123.263257,MISSING/NOT SPECIFIED,CA,SONOMA,6097,Sonoma County
18,201642451,SFO-2012CACDFLNU001109,NONFED,ST-NASF,ST/C&L,USCALNU,Sonoma-Lake Napa Unit,CALNU,Sonoma-Lake Napa Unit,,LNU001109,,AUSTIN CREEK STATE REC AR,,,,,,2012,2/17/2012 0:00,48,1806,Human,Missing data/not specified/undetermined,,,,,0.01,A,38.555791,-123.01149,STATE,CA,SONOMA,6097,Sonoma County
19,201642454,SFO-2012CACDFLNU001246,NONFED,ST-NASF,ST/C&L,USCALNU,Sonoma-Lake Napa Unit,CALNU,Sonoma-Lake Napa Unit,,LNU001246,,HESSEL RD  SEBASTOPOL,,,,,,2012,2/24/2012 0:00,55,1355,Human,Debris and open burning,,,,,0.01,A,38.34644,-122.771073,MISSING/NOT SPECIFIED,CA,SONOMA,6097,Sonoma County
20,201642455,SFO-2012CACDFLNU001275,NONFED,ST-NASF,ST/C&L,USCALNU,Sonoma-Lake Napa Unit,CALNU,Sonoma-Lake Napa Unit,,LNU001275,,MAIN ST / BOHEMIAN HWY,,,,,,2012,2/25/2012 0:00,56,1303,Human,Missing data/not specified/undetermined,,,,,0.18,A,38.465261,-123.009118,MISSING/NOT SPECIFIED,CA,SONOMA,6097,Sonoma County
21,201642458,SFO-2012CACDFLNU001644,NONFED,ST-NASF,ST/C&L,USCALNU,Sonoma-Lake Napa Unit,CALNU,Sonoma-Lake Napa Unit,,LNU001644,,WALLING,,,,,,2012,3/12/2012 0:00,72,1351,Human,Debris and open burning,,,,,0.25,A,38.716056,-122.95496,MISSING/NOT SPECIFIED,CA,SONOMA,6097,Sonoma County
22,201642459,SFO-2012CACDFLNU002233,NONFED,ST-NASF,ST/C&L,USCALNU,Sonoma-Lake Napa Unit,CALNU,Sonoma-Lake Napa Unit,,LNU002233,,LESLIE,,,,,,2012,4/6/2012 0:00,97,1454,Human,Debris and open burning,,,,,0.25,A,38.563354,-122.727623,MISSING/NOT SPECIFIED,CA,SONOMA,6097,Sonoma County
23,201642463,SFO-2012CACDFLNU002447,NONFED,ST-NASF,ST/C&L,USCALNU,Sonoma-Lake Napa Unit,CALNU,Sonoma-Lake Napa Unit,,LNU002447,,VINEYARD,,,,,,2012,4/16/2012 0:00,107,1156,Human,Debris and open burning,,,,,0.5,B,38.740438,-122.918412,MISSING/NOT SPECIFIED,CA,SONOMA,6097,Sonoma County
24,201642465,SFO-2012CACDFLNU002616,NONFED,ST-NASF,ST/C&L,USCALNU,Sonoma-Lake Napa Unit,CALNU,Sonoma-Lake Napa Unit,,LNU002616,,STONY,,,,,,2012,4/22/2012 0:00,113,1634,Missing data/not specified/undetermined,Missing data/not specified/undetermined,,,,,0.1,A,38.295,-122.743608,MISSING/NOT SPECIFIED,CA,SONOMA,6097,Sonoma County
25,201642469,SFO-2012CACDFLNU002748,NONFED,ST-NASF,ST/C&L,USCALNU,Sonoma-Lake Napa Unit,CALNU,Sonoma-Lake Napa Unit,,LNU002748,,CANFIELD RD  BLOOMFIELD,,,,,,2012,4/28/2012 0:00,119,1401,Human,Debris and open burning,,,,,1,B,38.338861,-122.802229,MISSING/NOT SPECIFIED,CA,SONOMA,6097,Sonoma County
26,201642471,SFO-2012CACDFLNU002783,NONFED,ST-NASF,ST/C&L,USCALNU,Sonoma-Lake Napa Unit,CALNU,Sonoma-Lake Napa Unit,,LNU002783,,ROCKPILE,,,,,,2012,4/29/2012 0:00,120,1743,Human,Debris and open burning,,,,,0.25,A,38.760333,-123.1946,MISSING/NOT SPECIFIED,CA,SONOMA,6097,Sonoma County
27,201642474,SFO-2012CACDFLNU003020,NONFED,ST-NASF,ST/C&L,USCALNU,Sonoma-Lake Napa Unit,CALNU,Sonoma-Lake Napa Unit,,LNU003020,,PORTERFIELD CREEK DR /S F,,,,,,2012,5/9/2012 0:00,130,450,Missing data/not specified/undetermined,Missing data/not specified/undetermined,,,,,0.01,A,38.79213,-123.020428,MISSING/NOT SPECIFIED,CA,SONOMA,6097,Sonoma County
28,201642480,SFO-2012CACDFLNU003113,NONFED,ST-NASF,ST/C&L,USCALNU,Sonoma-Lake Napa Unit,CALNU,Sonoma-Lake Napa Unit,,LNU003113,,WARM,,,,,,2012,5/12/2012 0:00,133,2112,Missing data/not specified/undetermined,Missing data/not specified/undetermined,,,,,1,B,38.371993,-122.524055,MISSING/NOT SPECIFIED,CA,SONOMA,6097,Sonoma County
29,201642481,SFO-2012CACDFLNU003123,NONFED,ST-NASF,ST/C&L,USCALNU,Sonoma-Lake Napa Unit,CALNU,Sonoma-Lake Napa Unit,,LNU003123,,STEWARTS POINT SKAGGS SPR,,,,,,2012,5/13/2012 0:00,134,1429,Missing data/not specified/undetermined,Missing data/not specified/undetermined,,,,,0.01,A,38.720268,-122.998384,UNDEFINED FEDERAL,CA,SONOMA,6097,Sonoma County
30,201642487,SFO-2012CACDFLNU003264,NONFED,ST-NASF,ST/C&L,USCALNU,Sonoma-Lake Napa Unit,CALNU,Sonoma-Lake Napa Unit,,LNU003264,,MURPHY,,,,,,2012,5/18/2012 0:00,139,1516,Human,Equipment and vehicle use,,,,,0.1,A,38.691967,-122.8416,MISSING/NOT SPECIFIED,CA,SONOMA,6097,Sonoma County
31,201642489,SFO-2012CACDFLNU003395,NONFED,ST-NASF,ST/C&L,USCALNU,Sonoma-Lake Napa Unit,CALNU,Sonoma-Lake Napa Unit,,LNU003395,,ANNADEL,,,,,,2012,5/22/2012 0:00,143,1613,Missing data/not specified/undetermined,Missing data/not specified/undetermined,,,,,1,B,38.42783,-122.6315,STATE,CA,SONOMA,6097,Sonoma County
32,201642490,SFO-2012CACDFLNU003423,NONFED,ST-NASF,ST/C&L,USCALNU,Sonoma-Lake Napa Unit,CALNU,Sonoma-Lake Napa Unit,,LNU003423,,PRESTON DR  CLOVERDALE,,,,,,2012,5/23/2012 0:00,144,1347,Human,Missing data/not specified/undetermined,,,,,0.1,A,38.846092,-123.015925,MISSING/NOT SPECIFIED,CA,SONOMA,6097,Sonoma County
33,201642491,SFO-2012CACDFLNU003432,NONFED,ST-NASF,ST/C&L,USCALNU,Sonoma-Lake Napa Unit,CALNU,Sonoma-Lake Napa Unit,,LNU003432,,KNIGHTS,,,,,,2012,5/23/2012 0:00,144,1642,Human,Missing data/not specified/undetermined,,,,,10,C,38.649722,-122.742222,MISSING/NOT SPECIFIED,CA,SONOMA,6097,Sonoma County
34,201642492,SFO-2012CACDFLNU003440,NONFED,ST-NASF,ST/C&L,USCALNU,Sonoma-Lake Napa Unit,CALNU,Sonoma-Lake Napa Unit,,LNU003440,,MILL,,,,,,2012,5/24/2012 0:00,145,528,Human,Missing data/not specified/undetermined,,,,,1,B,38.578333,-122.944444,MISSING/NOT SPECIFIED,CA,SONOMA,6097,Sonoma County
35,201642499,SFO-2012CACDFLNU003630,NONFED,ST-NASF,ST/C&L,USCALNU,Sonoma-Lake Napa Unit,CALNU,Sonoma-Lake Napa Unit,,LNU003630,,ARNOLD DR  SCHELLVILLE,,,,,,2012,5/30/2012 0:00,151,1414,Human,Debris and open burning,,,,,1,B,38.212389,-122.455054,MISSING/NOT SPECIFIED,CA,SONOMA,6097,Sonoma County
36,201642500,SFO-2012CACDFLNU003654,NONFED,ST-NASF,ST/C&L,USCALNU,Sonoma-Lake Napa Unit,CALNU,Sonoma-Lake Napa Unit,,LNU003654,,ALEXANDER,,,,,,2012,5/31/2012 0:00,152,1219,Missing data/not specified/undetermined,Missing data/not specified/undetermined,,,,,0.75,B,38.658548,-122.836134,MISSING/NOT SPECIFIED,CA,SONOMA,6097,Sonoma County
37,201642501,SFO-2012CACDFLNU003721,NONFED,ST-NASF,ST/C&L,USCALNU,Sonoma-Lake Napa Unit,CALNU,Sonoma-Lake Napa Unit,,LNU003721,,STEWARTS,,,,,,2012,6/2/2012 0:00,154,1516,Missing data/not specified/undetermined,Missing data/not specified/undetermined,,,,,0.25,A,38.674661,-123.108405,MISSING/NOT SPECIFIED,CA,SONOMA,6097,Sonoma County
38,201642503,SFO-2012CACDFLNU003755,NONFED,ST-NASF,ST/C&L,USCALNU,Sonoma-Lake Napa Unit,CALNU,Sonoma-Lake Napa Unit,,LNU003755,,RUSSIAN,,,,,,2012,6/3/2012 0:00,155,1828,Human,Misuse of fire by a minor,Minor,,,,0.1,A,38.464095,-123.15026,MISSING/NOT SPECIFIED,CA,SONOMA,6097,Sonoma County
39,201642504,SFO-2012CACDFLNU003833,NONFED,ST-NASF,ST/C&L,USCALNU,Sonoma-Lake Napa Unit,CALNU,Sonoma-Lake Napa Unit,,LNU003833,,GRATON RD / TANUDA RD,,,,,,2012,6/6/2012 0:00,158,1045,Human,Debris and open burning,,,,,0.1,A,38.416456,-122.93437,MISSING/NOT SPECIFIED,CA,SONOMA,6097,Sonoma County
40,201642505,SFO-2012CACDFLNU003879,NONFED,ST-NASF,ST/C&L,USCALNU,Sonoma-Lake Napa Unit,CALNU,Sonoma-Lake Napa Unit,,LNU003879,,HWY 101  N/S CLOVERDALE B,,,,,,2012,6/7/2012 0:00,159,1534,Missing data/not specified/undetermined,Missing data/not specified/undetermined,,,,,1,B,38.783437,-123.00965,MISSING/NOT SPECIFIED,CA,SONOMA,6097,Sonoma County
41,201642507,SFO-2012CACDFLNU003910,NONFED,ST-NASF,ST/C&L,USCALNU,Sonoma-Lake Napa Unit,CALNU,Sonoma-Lake Napa Unit,,LNU003910,,ANNADEL,,,,,,2012,6/8/2012 0:00,160,1919,Human,Arson/incendiarism,,,,,0.6,B,38.4372,-122.648167,STATE,CA,SONOMA,6097,Sonoma County
42,201642511,SFO-2012CACDFLNU003959,NONFED,ST-NASF,ST/C&L,USCALNU,Sonoma-Lake Napa Unit,CALNU,Sonoma-Lake Napa Unit,,LNU003959,,TIMBER COVE RD  TIMBER_CO,,,,,,2012,6/9/2012 0:00,161,2333,Human,Arson/incendiarism,,,,,0.1,A,38.547458,-123.274641,MISSING/NOT SPECIFIED,CA,SONOMA,6097,Sonoma County
43,201642515,SFO-2012CACDFLNU004007,NONFED,ST-NASF,ST/C&L,USCALNU,Sonoma-Lake Napa Unit,CALNU,Sonoma-Lake Napa Unit,,LNU004007,,CROCKER RD / RIVER RD,,,,,,2012,6/10/2012 0:00,162,2315,Missing data/not specified/undetermined,Missing data/not specified/undetermined,,,,,0.3,B,38.813617,-122.998423,MISSING/NOT SPECIFIED,CA,SONOMA,6097,Sonoma County
44,201642516,SFO-2012CACDFLNU004020,NONFED,ST-NASF,ST/C&L,USCALNU,Sonoma-Lake Napa Unit,CALNU,Sonoma-Lake Napa Unit,,LNU004020,,EVERETT,,,,,,2012,6/11/2012 0:00,163,1247,Human,Equipment and vehicle use,,,,,0.6,B,38.609368,-122.889171,MISSING/NOT SPECIFIED,CA,SONOMA,6097,Sonoma County
45,201642517,SFO-2012CACDFLNU004057,NONFED,ST-NASF,ST/C&L,USCALNU,Sonoma-Lake Napa Unit,CALNU,Sonoma-Lake Napa Unit,,LNU004057,,RAILROAD,,,,,,2012,6/12/2012 0:00,164,1326,Missing data/not specified/undetermined,Missing data/not specified/undetermined,,,,,0.25,A,38.303768,-122.708162,MISSING/NOT SPECIFIED,CA,SONOMA,6097,Sonoma County
46,201642518,SFO-2012CACDFLNU004064,NONFED,ST-NASF,ST/C&L,USCALNU,Sonoma-Lake Napa Unit,CALNU,Sonoma-Lake Napa Unit,,LNU004064,,RIO NIDO RD  GUERNEVILLE,,,,,,2012,6/12/2012 0:00,164,1504,Human,Missing data/not specified/undetermined,,,,,1,B,38.52148,-122.982655,MISSING/NOT SPECIFIED,CA,SONOMA,6097,Sonoma County
47,201642519,SFO-2012CACDFLNU004067,NONFED,ST-NASF,ST/C&L,USCALNU,Sonoma-Lake Napa Unit,CALNU,Sonoma-Lake Napa Unit,,LNU004067,,S CLOVERDALE BL / HWY 101,,,,,,2012,6/12/2012 0:00,164,1613,Human,Missing data/not specified/undetermined,,,,,1.88,B,38.783437,-123.00965,MISSING/NOT SPECIFIED,CA,SONOMA,6097,Sonoma County
48,201642520,SFO-2012CACDFLNU004084,NONFED,ST-NASF,ST/C&L,USCALNU,Sonoma-Lake Napa Unit,CALNU,Sonoma-Lake Napa Unit,,LNU004084,,MOUNTAIN HOME RANCH RD  K,,,,,,2012,6/13/2012 0:00,165,931,Human,Missing data/not specified/undetermined,,,,,0.1,A,38.566876,-122.631874,MISSING/NOT SPECIFIED,CA,SONOMA,6097,Sonoma County
49,201642524,SFO-2012CACDFLNU004318,NONFED,ST-NASF,ST/C&L,USCALNU,Sonoma-Lake Napa Unit,CALNU,Sonoma-Lake Napa Unit,,LNU004318,,HIGHWAY 2,,,,,,2012,6/18/2012 0:00,170,1717,Human,Missing data/not specified/undetermined,,,,,18.7,C,38.650547,-122.729256,MISSING/NOT SPECIFIED,CA,SONOMA,6097,Sonoma County
50,201642526,SFO-2012CACDFLNU004345,NONFED,ST-NASF,ST/C&L,USCALNU,Sonoma-Lake Napa Unit,CALNU,Sonoma-Lake Napa Unit,,LNU004345,,MORNIGSIDE,,,,,,2012,6/19/2012 0:00,171,1543,Human,Equipment and vehicle use,,,,,0.5,B,38.339141,-122.516432,MISSING/NOT SPECIFIED,CA,SONOMA,6097,Sonoma County
51,201642533,SFO-2012CACDFLNU004646,NONFED,ST-NASF,ST/C&L,USCALNU,Sonoma-Lake Napa Unit,CALNU,Sonoma-Lake Napa Unit,,LNU004646,,CLARK,,,,,,2012,6/28/2012 0:00,180,2206,Missing data/not specified/undetermined,Missing data/not specified/undetermined,,,,,0.8,B,38.795263,-123.013761,MISSING/NOT SPECIFIED,CA,SONOMA,6097,Sonoma County
52,201642534,SFO-2012CACDFLNU004651,NONFED,ST-NASF,ST/C&L,USCALNU,Sonoma-Lake Napa Unit,CALNU,Sonoma-Lake Napa Unit,,LNU004651,,NAPA RD  SCHELLVILLE,,,,,,2012,6/29/2012 0:00,181,727,Human,Missing data/not specified/undetermined,,,,,0.1,A,38.264678,-122.407917,MISSING/NOT SPECIFIED,CA,SONOMA,6097,Sonoma County
53,201642537,SFO-2012CACDFLNU004732,NONFED,ST-NASF,ST/C&L,USCALNU,Sonoma-Lake Napa Unit,CALNU,Sonoma-Lake Napa Unit,,LNU004732,,101,,,,,,2012,7/1/2012 0:00,183,1246,Missing data/not specified/undetermined,Missing data/not specified/undetermined,,,,,1,B,38.783437,-123.00965,MISSING/NOT SPECIFIED,CA,SONOMA,6097,Sonoma County
54,201642538,SFO-2012CACDFLNU004768,NONFED,ST-NASF,ST/C&L,USCALNU,Sonoma-Lake Napa Unit,CALNU,Sonoma-Lake Napa Unit,,LNU004768,,KENLEIGH DR  SONOMA,,,,,,2012,7/2/2012 0:00,184,838,Human,Debris and open burning,,,,,0.1,A,38.300762,-122.547353,MISSING/NOT SPECIFIED,CA,SONOMA,6097,Sonoma County
55,201642542,SFO-2012CACDFLNU004841,NONFED,ST-NASF,ST/C&L,USCALNU,Sonoma-Lake Napa Unit,CALNU,Sonoma-Lake Napa Unit,,LNU004841,,RAILROAD,,,,,,2012,7/4/2012 0:00,186,1050,Human,Missing data/not specified/undetermined,,,,,0.5,B,38.303768,-122.708162,MISSING/NOT SPECIFIED,CA,SONOMA,6097,Sonoma County
56,201642543,SFO-2012CACDFLNU004845,NONFED,ST-NASF,ST/C&L,USCALNU,Sonoma-Lake Napa Unit,CALNU,Sonoma-Lake Napa Unit,,LNU004845,,WESTSIDE,,,,,,2012,7/4/2012 0:00,186,1306,Missing data/not specified/undetermined,Missing data/not specified/undetermined,,,,,0.1,A,38.547279,-122.870912,MISSING/NOT SPECIFIED,CA,SONOMA,6097,Sonoma County
57,201642544,SFO-2012CACDFLNU004852,NONFED,ST-NASF,ST/C&L,USCALNU,Sonoma-Lake Napa Unit,CALNU,Sonoma-Lake Napa Unit,,LNU004852,,WESTSIDE 2,,,,,,2012,7/4/2012 0:00,186,1544,Human,Arson/incendiarism,,,,,1,B,38.506181,-122.903589,MISSING/NOT SPECIFIED,CA,SONOMA,6097,Sonoma County
58,201642546,SFO-2012CACDFLNU004913,NONFED,ST-NASF,ST/C&L,USCALNU,Sonoma-Lake Napa Unit,CALNU,Sonoma-Lake Napa Unit,,LNU004913,,FELTA,,,,,,2012,7/5/2012 0:00,187,1630,Human,Recreation and ceremony,,,,,0.5,B,38.581667,-122.882817,MISSING/NOT SPECIFIED,CA,SONOMA,6097,Sonoma County
59,201642548,SFO-2012CACDFLNU005002,NONFED,ST-NASF,ST/C&L,USCALNU,Sonoma-Lake Napa Unit,CALNU,Sonoma-Lake Napa Unit,,LNU005002,,COLEMAN,,,,,,2012,7/7/2012 0:00,189,1826,Missing data/not specified/undetermined,Missing data/not specified/undetermined,,,,,0.32,B,38.402844,-123.03583,MISSING/NOT SPECIFIED,CA,SONOMA,6097,Sonoma County
60,201642549,SFO-2012CACDFLNU005006,NONFED,ST-NASF,ST/C&L,USCALNU,Sonoma-Lake Napa Unit,CALNU,Sonoma-Lake Napa Unit,,LNU005006,,GROVE,,,,,,2012,7/7/2012 0:00,189,2026,Missing data/not specified/undetermined,Missing data/not specified/undetermined,,,,,0.1,A,38.293678,-122.507408,MISSING/NOT SPECIFIED,CA,SONOMA,6097,Sonoma County
61,201642556,SFO-2012CACDFLNU005103,NONFED,ST-NASF,ST/C&L,USCALNU,Sonoma-Lake Napa Unit,CALNU,Sonoma-Lake Napa Unit,,LNU005103,,SHILOH,,,,,,2012,7/10/2012 0:00,192,1117,Missing data/not specified/undetermined,Missing data/not specified/undetermined,,,,,0.5,B,38.542971,-122.745712,MISSING/NOT SPECIFIED,CA,SONOMA,6097,Sonoma County
62,201642558,SFO-2012CACDFLNU005146,NONFED,ST-NASF,ST/C&L,USCALNU,Sonoma-Lake Napa Unit,CALNU,Sonoma-Lake Napa Unit,,LNU005146,,GROVE,,,,,,2012,7/11/2012 0:00,193,1615,Missing data/not specified/undetermined,Missing data/not specified/undetermined,,,,,3.1,B,38.293678,-122.507408,MISSING/NOT SPECIFIED,CA,SONOMA,6097,Sonoma County
63,201642560,SFO-2012CACDFLNU005297,NONFED,ST-NASF,ST/C&L,USCALNU,Sonoma-Lake Napa Unit,CALNU,Sonoma-Lake Napa Unit,,LNU005297,,LIBERTY,,,,,,2012,7/15/2012 0:00,197,1317,Human,Missing data/not specified/undetermined,,,,,0.7,B,38.261685,-122.700881,MISSING/NOT SPECIFIED,CA,SONOMA,6097,Sonoma County
64,201642562,SFO-2012CACDFLNU005318,NONFED,ST-NASF,ST/C&L,USCALNU,Sonoma-Lake Napa Unit,CALNU,Sonoma-Lake Napa Unit,,LNU005318,,HAMPTON,,,,,,2012,7/16/2012 0:00,198,1026,Human,Smoking,,,,,1,B,38.42095,-122.955367,MISSING/NOT SPECIFIED,CA,SONOMA,6097,Sonoma County
65,201642565,SFO-2012CACDFLNU005471,NONFED,ST-NASF,ST/C&L,USCALNU,Sonoma-Lake Napa Unit,CALNU,Sonoma-Lake Napa Unit,,LNU005471,,DOWITCHER CT  BODEGA_BAY,,,,,,2012,7/20/2012 0:00,202,1657,Human,Missing data/not specified/undetermined,,,,,0.1,A,38.307409,-123.0115,MISSING/NOT SPECIFIED,CA,SONOMA,6097,Sonoma County
66,201642566,SFO-2012CACDFLNU005493,NONFED,ST-NASF,ST/C&L,USCALNU,Sonoma-Lake Napa Unit,CALNU,Sonoma-Lake Napa Unit,,LNU005493,,PORTER,,,,,,2012,7/21/2012 0:00,203,937,Human,Missing data/not specified/undetermined,,,,,1,B,38.550105,-122.667852,MISSING/NOT SPECIFIED,CA,SONOMA,6097,Sonoma County
67,201642568,SFO-2012CACDFLNU005498,NONFED,ST-NASF,ST/C&L,USCALNU,Sonoma-Lake Napa Unit,CALNU,Sonoma-Lake Napa Unit,,LNU005498,,BLOOMFIELD RD / BURNSIDE,,,,,,2012,7/21/2012 0:00,203,1219,Human,Missing data/not specified/undetermined,,,,,0.1,A,38.338641,-122.837662,MISSING/NOT SPECIFIED,CA,SONOMA,6097,Sonoma County
68,201642571,SFO-2012CACDFLNU005562,NONFED,ST-NASF,ST/C&L,USCALNU,Sonoma-Lake Napa Unit,CALNU,Sonoma-Lake Napa Unit,,LNU005562,,GEYSERS,,,,,,2012,7/22/2012 0:00,204,1935,Missing data/not specified/undetermined,Missing data/not specified/undetermined,,,,,0.25,A,38.831485,-123.012096,MISSING/NOT SPECIFIED,CA,SONOMA,6097,Sonoma County
69,201642575,SFO-2012CACDFLNU005650,NONFED,ST-NASF,ST/C&L,USCALNU,Sonoma-Lake Napa Unit,CALNU,Sonoma-Lake Napa Unit,,LNU005650,,FIRST,,,,,,2012,7/25/2012 0:00,207,1324,Missing data/not specified/undetermined,Missing data/not specified/undetermined,,,,,1,B,38.808064,-123.009445,MISSING/NOT SPECIFIED,CA,SONOMA,6097,Sonoma County
70,201642577,SFO-2012CACDFLNU005701,NONFED,ST-NASF,ST/C&L,USCALNU,Sonoma-Lake Napa Unit,CALNU,Sonoma-Lake Napa Unit,,LNU005701,,SONOMA,,,,,,2012,7/27/2012 0:00,209,957,Human,Equipment and vehicle use,,,,,1,B,38.333205,-122.58687,MISSING/NOT SPECIFIED,CA,SONOMA,6097,Sonoma County
71,201642582,SFO-2012CACDFLNU005845,NONFED,ST-NASF,ST/C&L,USCALNU,Sonoma-Lake Napa Unit,CALNU,Sonoma-Lake Napa Unit,,LNU005845,,SEAVIEW,,,,,,2012,7/31/2012 0:00,213,1417,Human,Missing data/not specified/undetermined,,,,,0.1,A,38.554722,-123.263333,MISSING/NOT SPECIFIED,CA,SONOMA,6097,Sonoma County
72,201642583,SFO-2012CACDFLNU005880,NONFED,ST-NASF,ST/C&L,USCALNU,Sonoma-Lake Napa Unit,CALNU,Sonoma-Lake Napa Unit,,LNU005880,,ASTI RD  CLOVERDALE,,,,,,2012,8/1/2012 0:00,214,1023,Human,Equipment and vehicle use,,,,,1,B,38.765636,-122.989466,MISSING/NOT SPECIFIED,CA,SONOMA,6097,Sonoma County
73,201642584,SFO-2012CACDFLNU005882,NONFED,ST-NASF,ST/C&L,USCALNU,Sonoma-Lake Napa Unit,CALNU,Sonoma-Lake Napa Unit,,LNU005882,,BEACH,,,,,,2012,8/1/2012 0:00,214,1050,Human,Recreation and ceremony,,,,,0.25,A,38.453344,-123.131211,STATE,CA,SONOMA,6097,Sonoma County
74,201642586,SFO-2012CACDFLNU005902,NONFED,ST-NASF,ST/C&L,USCALNU,Sonoma-Lake Napa Unit,CALNU,Sonoma-Lake Napa Unit,,LNU005902,,ARNOLD,,,,,,2012,8/1/2012 0:00,214,2048,Human,Missing data/not specified/undetermined,,,,,1,B,38.318447,-122.501078,MISSING/NOT SPECIFIED,CA,SONOMA,6097,Sonoma County
75,201642592,SFO-2012CACDFLNU006031,NONFED,ST-NASF,ST/C&L,USCALNU,Sonoma-Lake Napa Unit,CALNU,Sonoma-Lake Napa Unit,,LNU006031,,RANCH,,,,,,2012,8/4/2012 0:00,217,1943,Human,Equipment and vehicle use,,,,,0.1,A,38.676788,-122.735787,MISSING/NOT SPECIFIED,CA,SONOMA,6097,Sonoma County
76,201642596,SFO-2012CACDFLNU006097,NONFED,ST-NASF,ST/C&L,USCALNU,Sonoma-Lake Napa Unit,CALNU,Sonoma-Lake Napa Unit,,LNU006097,,ICE BOX CANYON RD / SUMME,,,,,,2012,8/6/2012 0:00,219,2018,Human,Missing data/not specified/undetermined,,,,,0.12,A,38.50226,-122.930831,MISSING/NOT SPECIFIED,CA,SONOMA,6097,Sonoma County
77,201642599,SFO-2012CACDFLNU006162,NONFED,ST-NASF,ST/C&L,USCALNU,Sonoma-Lake Napa Unit,CALNU,Sonoma-Lake Napa Unit,,LNU006162,,RIESLING ST / HEALDSBURG,,,,,,2012,8/8/2012 0:00,221,1541,Human,Smoking,,,,,1,B,38.798778,-123.023555,MISSING/NOT SPECIFIED,CA,SONOMA,6097,Sonoma County
78,201642600,SFO-2012CACDFLNU006186,NONFED,ST-NASF,ST/C&L,USCALNU,Sonoma-Lake Napa Unit,CALNU,Sonoma-Lake Napa Unit,,LNU006186,,PORTER,,,,,,2012,8/9/2012 0:00,222,1258,Human,Missing data/not specified/undetermined,,,,,0.1,A,38.554524,-122.675247,MISSING/NOT SPECIFIED,CA,SONOMA,6097,Sonoma County
79,201642601,SFO-2012CACDFLNU006198,NONFED,ST-NASF,ST/C&L,USCALNU,Sonoma-Lake Napa Unit,CALNU,Sonoma-Lake Napa Unit,,LNU006198,,SLEEPY,,,,,,2012,8/9/2012 0:00,222,2000,Missing data/not specified/undetermined,Missing data/not specified/undetermined,,,,,1,B,38.158767,-122.499988,MISSING/NOT SPECIFIED,CA,SONOMA,6097,Sonoma County
80,201642609,SFO-2012CACDFLNU006450,NONFED,ST-NASF,ST/C&L,USCALNU,Sonoma-Lake Napa Unit,CALNU,Sonoma-Lake Napa Unit,,LNU006450,,GRANGE RD  SANTA_ROSA,,,,,,2012,8/16/2012 0:00,229,1220,Human,Equipment and vehicle use,,,,,0.25,A,38.394887,-122.638786,MISSING/NOT SPECIFIED,CA,SONOMA,6097,Sonoma County
81,201642611,SFO-2012CACDFLNU006468,NONFED,ST-NASF,ST/C&L,USCALNU,Sonoma-Lake Napa Unit,CALNU,Sonoma-Lake Napa Unit,,LNU006468,,PORTER,,,,,,2012,8/16/2012 0:00,229,2351,Missing data/not specified/undetermined,Missing data/not specified/undetermined,,,,,0.1,A,38.549156,-122.711412,MISSING/NOT SPECIFIED,CA,SONOMA,6097,Sonoma County
82,201642612,SFO-2012CACDFLNU006479,NONFED,ST-NASF,ST/C&L,USCALNU,Sonoma-Lake Napa Unit,CALNU,Sonoma-Lake Napa Unit,,LNU006479,,SIERRA,,,,,,2012,8/17/2012 0:00,230,1245,Human,Missing data/not specified/undetermined,,,,,1,B,38.321327,-122.713715,MISSING/NOT SPECIFIED,CA,SONOMA,6097,Sonoma County
83,201642613,SFO-2012CACDFLNU006482,NONFED,ST-NASF,ST/C&L,USCALNU,Sonoma-Lake Napa Unit,CALNU,Sonoma-Lake Napa Unit,,LNU006482,,HILLVIEW,,,,,,2012,8/17/2012 0:00,230,1328,Human,Equipment and vehicle use,,,,,0.03,A,38.571208,-122.813682,MISSING/NOT SPECIFIED,CA,SONOMA,6097,Sonoma County
84,201642614,SFO-2012CACDFLNU006483,NONFED,ST-NASF,ST/C&L,USCALNU,Sonoma-Lake Napa Unit,CALNU,Sonoma-Lake Napa Unit,,LNU006483,,ARNOLD,,,,,,2012,8/17/2012 0:00,230,1334,Missing data/not specified/undetermined,Missing data/not specified/undetermined,,,,,20,C,38.182284,-122.443539,MISSING/NOT SPECIFIED,CA,SONOMA,6097,Sonoma County
85,201642615,SFO-2012CACDFLNU006491,NONFED,ST-NASF,ST/C&L,USCALNU,Sonoma-Lake Napa Unit,CALNU,Sonoma-Lake Napa Unit,,LNU006491,,HWY 101  S/W SIERRA AV 2,,,,,,2012,8/17/2012 0:00,230,1245,Human,Missing data/not specified/undetermined,,,,,1,B,38.321327,-122.713715,MISSING/NOT SPECIFIED,CA,SONOMA,6097,Sonoma County
86,201642616,SFO-2012CACDFLNU006492,NONFED,ST-NASF,ST/C&L,USCALNU,Sonoma-Lake Napa Unit,CALNU,Sonoma-Lake Napa Unit,,LNU006492,,HWY 101  S/W SIERRA AV 3,,,,,,2012,8/17/2012 0:00,230,1245,Human,Missing data/not specified/undetermined,,,,,1,B,38.321327,-122.713715,MISSING/NOT SPECIFIED,CA,SONOMA,6097,Sonoma County
87,201642617,SFO-2012CACDFLNU006493,NONFED,ST-NASF,ST/C&L,USCALNU,Sonoma-Lake Napa Unit,CALNU,Sonoma-Lake Napa Unit,,LNU006493,,HWY 101  S/W SIERRA AV 4,,,,,,2012,8/17/2012 0:00,230,1245,Human,Missing data/not specified/undetermined,,,,,1,B,38.321327,-122.713715,MISSING/NOT SPECIFIED,CA,SONOMA,6097,Sonoma County
88,201642621,SFO-2012CACDFLNU006557,NONFED,ST-NASF,ST/C&L,USCALNU,Sonoma-Lake Napa Unit,CALNU,Sonoma-Lake Napa Unit,,LNU006557,,HILL ST / MAIN ST,,,,,,2012,8/20/2012 0:00,233,128,Missing data/not specified/undetermined,Missing data/not specified/undetermined,,,,,0.1,A,38.40853,-122.94756,MISSING/NOT SPECIFIED,CA,SONOMA,6097,Sonoma County
89,201642625,SFO-2012CACDFLNU006649,NONFED,ST-NASF,ST/C&L,USCALNU,Sonoma-Lake Napa Unit,CALNU,Sonoma-Lake Napa Unit,,LNU006649,,ROBLAR,,,,,,2012,8/23/2012 0:00,236,1423,Human,Equipment and vehicle use,,,,,1,B,38.321191,-122.763883,MISSING/NOT SPECIFIED,CA,SONOMA,6097,Sonoma County
90,201642631,SFO-2012CACDFLNU006877,NONFED,ST-NASF,ST/C&L,USCALNU,Sonoma-Lake Napa Unit,CALNU,Sonoma-Lake Napa Unit,,LNU006877,,SOUTH,,,,,,2012,8/30/2012 0:00,243,1609,Human,Equipment and vehicle use,,,,,0.25,A,38.781931,-123.009916,MISSING/NOT SPECIFIED,CA,SONOMA,6097,Sonoma County
91,201642632,SFO-2012CACDFLNU006910,NONFED,ST-NASF,ST/C&L,USCALNU,Sonoma-Lake Napa Unit,CALNU,Sonoma-Lake Napa Unit,,LNU006910,,PINE,,,,,,2012,8/31/2012 0:00,244,1519,Human,Missing data/not specified/undetermined,,,,,0.1,A,38.745667,-122.747,UNDEFINED FEDERAL,CA,SONOMA,6097,Sonoma County
92,201642634,SFO-2012CACDFLNU006942,NONFED,ST-NASF,ST/C&L,USCALNU,Sonoma-Lake Napa Unit,CALNU,Sonoma-Lake Napa Unit,,LNU006942,,SONOMA,,,,,,2012,9/1/2012 0:00,245,1209,Missing data/not specified/undetermined,Missing data/not specified/undetermined,,,,,0.09,A,38.367438,-122.594748,MISSING/NOT SPECIFIED,CA,SONOMA,6097,Sonoma County
93,201642638,SFO-2012CACDFLNU007070,NONFED,ST-NASF,ST/C&L,USCALNU,Sonoma-Lake Napa Unit,CALNU,Sonoma-Lake Napa Unit,,LNU007070,,ADOBE,,,,,,2012,9/4/2012 0:00,248,1537,Human,Missing data/not specified/undetermined,,,,,5.4,B,38.253547,-122.569291,MISSING/NOT SPECIFIED,CA,SONOMA,6097,Sonoma County
94,201642642,SFO-2012CACDFLNU007150,NONFED,ST-NASF,ST/C&L,USCALNU,Sonoma-Lake Napa Unit,CALNU,Sonoma-Lake Napa Unit,,LNU007150,,GROVE,,,,,,2012,9/7/2012 0:00,251,1309,Human,Missing data/not specified/undetermined,,,,,2,B,38.303333,-122.551389,MISSING/NOT SPECIFIED,CA,SONOMA,6097,Sonoma County
95,201642643,SFO-2012CACDFLNU007169,NONFED,ST-NASF,ST/C&L,USCALNU,Sonoma-Lake Napa Unit,CALNU,Sonoma-Lake Napa Unit,,LNU007169,,BARCELONA,,,,,,2012,9/7/2012 0:00,251,2353,Missing data/not specified/undetermined,Missing data/not specified/undetermined,,,,,0.34,B,38.310981,-122.473754,MISSING/NOT SPECIFIED,CA,SONOMA,6097,Sonoma County
96,201642645,SFO-2012CACDFLNU007195,NONFED,ST-NASF,ST/C&L,USCALNU,Sonoma-Lake Napa Unit,CALNU,Sonoma-Lake Napa Unit,,LNU007195,,SUNSET,,,,,,2012,9/9/2012 0:00,253,1027,Human,Missing data/not specified/undetermined,,,,,1,B,38.507985,-122.929595,MISSING/NOT SPECIFIED,CA,SONOMA,6097,Sonoma County
97,201642649,SFO-2012CACDFLNU007368,NONFED,ST-NASF,ST/C&L,USCALNU,Sonoma-Lake Napa Unit,CALNU,Sonoma-Lake Napa Unit,,LNU007368,,CAZADERO,,,,,,2012,9/14/2012 0:00,258,1719,Human,Missing data/not specified/undetermined,,,,,0.1,A,38.5017,-123.070362,MISSING/NOT SPECIFIED,CA,SONOMA,6097,Sonoma County
98,201642655,SFO-2012CACDFLNU007455,NONFED,ST-NASF,ST/C&L,USCALNU,Sonoma-Lake Napa Unit,CALNU,Sonoma-Lake Napa Unit,,LNU007455,,ADOBE CANYON RD  KENWOOD,,,,,,2012,9/16/2012 0:00,260,2120,Human,Missing data/not specified/undetermined,,,,,0.25,A,38.435039,-122.549456,MISSING/NOT SPECIFIED,CA,SONOMA,6097,Sonoma County
99,201642656,SFO-2012CACDFLNU007460,NONFED,ST-NASF,ST/C&L,USCALNU,Sonoma-Lake Napa Unit,CALNU,Sonoma-Lake Napa Unit,,LNU007460,,OLD RIVER RD  FORESTVILLE,,,,,,2012,9/17/2012 0:00,261,713,Human,Missing data/not specified/undetermined,,,,,0.12,A,38.503803,-122.912097,MISSING/NOT SPECIFIED,CA,SONOMA,6097,Sonoma County
100,201642657,SFO-2012CACDFLNU007477,NONFED,ST-NASF,ST/C&L,USCALNU,Sonoma-Lake Napa Unit,CALNU,Sonoma-Lake Napa Unit,,LNU007477,,MONTE VISTA TER  MONTE_RI,,,,,,2012,9/17/2012 0:00,261,1411,Missing data/not specified/undetermined,Missing data/not specified/undetermined,,,,,1,B,38.469371,-123.018625,MISSING/NOT SPECIFIED,CA,SONOMA,6097,Sonoma County
101,201642659,SFO-2012CACDFLNU007602,NONFED,ST-NASF,ST/C&L,USCALNU,Sonoma-Lake Napa Unit,CALNU,Sonoma-Lake Napa Unit,,LNU007602,,MOSCOW RD  MONTE_RIO,,,,,,2012,9/21/2012 0:00,265,1057,Missing data/not specified/undetermined,Missing data/not specified/undetermined,,,,,0.1,A,38.468411,-123.015958,MISSING/NOT SPECIFIED,CA,SONOMA,6097,Sonoma County
102,201642661,SFO-2012CACDFLNU007612,NONFED,ST-NASF,ST/C&L,USCALNU,Sonoma-Lake Napa Unit,CALNU,Sonoma-Lake Napa Unit,,LNU007612,,BEAN AV / OCEAN VIEW AV,,,,,,2012,9/21/2012 0:00,265,1524,Human,Missing data/not specified/undetermined,,,,,0.1,A,38.351073,-123.061945,MISSING/NOT SPECIFIED,CA,SONOMA,6097,Sonoma County
103,201642662,SFO-2012CACDFLNU007683,NONFED,ST-NASF,ST/C&L,USCALNU,Sonoma-Lake Napa Unit,CALNU,Sonoma-Lake Napa Unit,,LNU007683,,PORTER,,,,,,2012,9/23/2012 0:00,267,1454,Human,Missing data/not specified/undetermined,,,,,1,B,38.549732,-122.71291,MISSING/NOT SPECIFIED,CA,SONOMA,6097,Sonoma County
104,201642663,SFO-2012CACDFLNU007712,NONFED,ST-NASF,ST/C&L,USCALNU,Sonoma-Lake Napa Unit,CALNU,Sonoma-Lake Napa Unit,,LNU007712,,HWY 101  S/ OLD REDWOOD H,,,,,,2012,9/24/2012 0:00,268,2255,Missing data/not specified/undetermined,Missing data/not specified/undetermined,,,,,1,B,38.828153,-123.014365,MISSING/NOT SPECIFIED,CA,SONOMA,6097,Sonoma County
105,201642666,SFO-2012CACDFLNU007930,NONFED,ST-NASF,ST/C&L,USCALNU,Sonoma-Lake Napa Unit,CALNU,Sonoma-Lake Napa Unit,,LNU007930,,STONY,,,,,,2012,10/1/2012 0:00,275,1610,Human,Missing data/not specified/undetermined,,,,,5,B,38.334558,-122.738309,MISSING/NOT SPECIFIED,CA,SONOMA,6097,Sonoma County
106,201642668,SFO-2012CACDFLNU007990,NONFED,ST-NASF,ST/C&L,USCALNU,Sonoma-Lake Napa Unit,CALNU,Sonoma-Lake Napa Unit,,LNU007990,,ROBERTS,,,,,,2012,10/3/2012 0:00,277,1226,Human,Equipment and vehicle use,,,,,0.1,A,38.33559,-122.643533,MISSING/NOT SPECIFIED,CA,SONOMA,6097,Sonoma County
107,201642670,SFO-2012CACDFLNU008235,NONFED,ST-NASF,ST/C&L,USCALNU,Sonoma-Lake Napa Unit,CALNU,Sonoma-Lake Napa Unit,,LNU008235,,HWY 101  N/S CLOVERDALE B,,,,,,2012,10/12/2012 0:00,286,931,Missing data/not specified/undetermined,Missing data/not specified/undetermined,,,,,1,B,38.783497,-123.009373,MISSING/NOT SPECIFIED,CA,SONOMA,6097,Sonoma County
108,201642675,SFO-2012CACDFLNU008457,NONFED,ST-NASF,ST/C&L,USCALNU,Sonoma-Lake Napa Unit,CALNU,Sonoma-Lake Napa Unit,,LNU008457,,RIVER,,,,,,2012,10/19/2012 0:00,293,1426,Missing data/not specified/undetermined,Missing data/not specified/undetermined,,,,,0.25,A,38.51918,-122.979531,MISSING/NOT SPECIFIED,CA,SONOMA,6097,Sonoma County
109,201642677,SFO-2012CACDFLNU008528,NONFED,ST-NASF,ST/C&L,USCALNU,Sonoma-Lake Napa Unit,CALNU,Sonoma-Lake Napa Unit,,LNU008528,,STEWARTS,,,,,,2012,10/21/2012 0:00,295,2133,Human,Missing data/not specified/undetermined,,,,,0.1,A,38.67101,-123.081934,MISSING/NOT SPECIFIED,CA,SONOMA,6097,Sonoma County
110,201642678,SFO-2012CACDFLNU009034,NONFED,ST-NASF,ST/C&L,USCALNU,Sonoma-Lake Napa Unit,CALNU,Sonoma-Lake Napa Unit,,LNU009034,,CHERRY,,,,,,2012,11/10/2012 0:00,315,1125,Human,Debris and open burning,,,,,0.5,B,38.794935,-123.041919,MISSING/NOT SPECIFIED,CA,SONOMA,6097,Sonoma County
111,201642679,SFO-2012CACDFLNU009061,NONFED,ST-NASF,ST/C&L,USCALNU,Sonoma-Lake Napa Unit,CALNU,Sonoma-Lake Napa Unit,,LNU009061,,BIG CEDAR LN  SEBASTOPOL,,,,,,2012,11/11/2012 0:00,316,1614,Missing data/not specified/undetermined,Missing data/not specified/undetermined,,,,,1,B,38.361512,-122.796417,MISSING/NOT SPECIFIED,CA,SONOMA,6097,Sonoma County
112,201642680,SFO-2012CACDFLNU009090,NONFED,ST-NASF,ST/C&L,USCALNU,Sonoma-Lake Napa Unit,CALNU,Sonoma-Lake Napa Unit,,LNU009090,,MOUNTAIN,,,,,,2012,11/13/2012 0:00,318,406,Human,Missing data/not specified/undetermined,,,,,0.1,A,38.572552,-122.644276,MISSING/NOT SPECIFIED,CA,SONOMA,6097,Sonoma County
113,201642681,SFO-2012CACDFLNU009328,NONFED,ST-NASF,ST/C&L,USCALNU,Sonoma-Lake Napa Unit,CALNU,Sonoma-Lake Napa Unit,,LNU009328,,ANNAPOLIS,,,,,,2012,11/24/2012 0:00,329,1415,Human,Debris and open burning,,,,,0.1,A,38.71667,-123.364701,MISSING/NOT SPECIFIED,CA,SONOMA,6097,Sonoma County
1,400015987,W-714324,FED,DOI-WFMI,BLM,USCACND,Central California District,CACND,Central California District,10045,,LE5R,NUNS,2017_7293146_NUNS,2017_7200218_SOUTHERN LNU COMPLEX,CA3838712252020171009,NUNS,SOUTHERN/CENTRAL LNU COMPLEX,2017,10/8/2017 0:00,281,2200,Human,Missing data/not specified/undetermined,,10/29/2017 0:00,302,1200,56556,G,38.4089,-122.47,PRIVATE,CA,Sonoma,6097,Sonoma County
2,400015989,W-714325,FED,DOI-WFMI,BLM,USCACND,Central California District,CACND,Central California District,10047,,LE5R,POCKET,2017_7290270_POCKET,2017_7293180_CENTRAL LNU COMPLEX,CA3874312290720171009,POCKET,CENTRAL LNU COMPLEX,2017,10/9/2017 0:00,282,330,Human,Missing data/not specified/undetermined,,10/29/2017 0:00,302,1200,17357,G,38.7661,-122.9069,PRIVATE,CA,Sonoma,6097,Sonoma County
3,400108848,SFO-2017CACDFLNU009015,NONFED,ST-NASF,ST/C&L,USCACDF,California Department of Forestry & Fire Protection,CACDF,"Headquarters, California Department of Forestry & Fire Protection",,LNU009015,,RED 2,,,,,,2017,9/13/2017 0:00,256,840,Natural,Natural,,9/13/2017 0:00,256,934,0.02,A,38.68815,-122.804683,MISSING/NOT SPECIFIED,CA,SONOMA,6097,Sonoma County
4,400113219,SFO-2017CACDFLNU004279,NONFED,ST-NASF,ST/C&L,USCACDF,California Department of Forestry & Fire Protection,CACDF,"Headquarters, California Department of Forestry & Fire Protection",,LNU004279,,HALF MOON ST /N CASTLE RD,,,,,,2017,5/18/2017 0:00,138,1347,Human,Equipment and vehicle use,,5/18/2017 0:00,138,1410,0.01,A,38.299529,-122.433569,MISSING/NOT SPECIFIED,CA,SONOMA,6097,Sonoma County
5,400113427,SFO-2017CACDFLNU005216,NONFED,ST-NASF,ST/C&L,USCACDF,California Department of Forestry & Fire Protection,CACDF,"Headquarters, California Department of Forestry & Fire Protection",,LNU005216,,WINE CREEK RD  GEYSERVILL,,,,,,2017,6/13/2017 0:00,164,1145,Human,Equipment and vehicle use,,6/13/2017 0:00,164,1215,0.14,A,38.659783,-122.95305,MISSING/NOT SPECIFIED,CA,SONOMA,6097,Sonoma County
6,400113458,SFO-2017CACDFLNU005289,NONFED,ST-NASF,ST/C&L,USCACDF,California Department of Forestry & Fire Protection,CACDF,"Headquarters, California Department of Forestry & Fire Protection",,LNU005289,,PLEASANTS,,,,,,2017,6/15/2017 0:00,166,1402,Human,Equipment and vehicle use,,6/15/2017 0:00,166,1454,0.02,A,38.537568,-122.769045,MISSING/NOT SPECIFIED,CA,SONOMA,6097,Sonoma County
7,400113695,SFO-2017CACDFLNU006118,NONFED,ST-NASF,ST/C&L,USCACDF,California Department of Forestry & Fire Protection,CACDF,"Headquarters, California Department of Forestry & Fire Protection",,LNU006118,,PEPPER,,,,,,2017,7/3/2017 0:00,184,1522,Human,Equipment and vehicle use,,7/3/2017 0:00,184,1630,0.4,B,38.284066,-122.720013,MISSING/NOT SPECIFIED,CA,SONOMA,6097,Sonoma County
8,400114015,SFO-2017CACDFLNU007039,NONFED,ST-NASF,ST/C&L,USCACDF,California Department of Forestry & Fire Protection,CACDF,"Headquarters, California Department of Forestry & Fire Protection",,LNU007039,,CANFIELD,,,,,,2017,7/26/2017 0:00,207,1211,Human,Equipment and vehicle use,,7/26/2017 0:00,207,1315,3.57,B,38.32153,-122.785571,MISSING/NOT SPECIFIED,CA,SONOMA,6097,Sonoma County
9,400114369,SFO-2017CACDFLNU008454,NONFED,ST-NASF,ST/C&L,USCACDF,California Department of Forestry & Fire Protection,CACDF,"Headquarters, California Department of Forestry & Fire Protection",,LNU008454,,JACOBSEN LN  PENNGROVE,,,,,,2017,8/31/2017 0:00,243,859,Human,Equipment and vehicle use,,8/31/2017 0:00,243,918,0.01,A,38.29819,-122.647008,MISSING/NOT SPECIFIED,CA,SONOMA,6097,Sonoma County
10,400114591,SFO-2017CACDFLNU009709,NONFED,ST-NASF,ST/C&L,USCACDF,California Department of Forestry & Fire Protection,CACDF,"Headquarters, California Department of Forestry & Fire Protection",,LNU009709,,PEPPER,,,,,,2017,9/30/2017 0:00,273,1420,Human,Equipment and vehicle use,,9/30/2017 0:00,273,1434,0.01,A,38.257895,-122.763158,MISSING/NOT SPECIFIED,CA,SONOMA,6097,Sonoma County
11,400116538,SFO-2017CACDFLNU004308,NONFED,ST-NASF,ST/C&L,USCACDF,California Department of Forestry & Fire Protection,CACDF,"Headquarters, California Department of Forestry & Fire Protection",,LNU004308,,NELLIGAN RD  GLEN_ELLEN,,,,,,2017,5/19/2017 0:00,139,819,Human,Equipment and vehicle use,,,,,0.01,A,38.414311,-122.511462,MISSING/NOT SPECIFIED,CA,SONOMA,6097,Sonoma County
12,400116539,SFO-2017CACDFLNU005343,NONFED,ST-NASF,ST/C&L,USCACDF,California Department of Forestry & Fire Protection,CACDF,"Headquarters, California Department of Forestry & Fire Protection",,LNU005343,,CUNNINGHAM,,,,,,2017,6/16/2017 0:00,167,1447,Human,Equipment and vehicle use,,,,,0.43,B,38.364667,-122.8055,MISSING/NOT SPECIFIED,CA,SONOMA,6097,Sonoma County
13,400116540,SFO-2017CACDFLNU005611,NONFED,ST-NASF,ST/C&L,USCACDF,California Department of Forestry & Fire Protection,CACDF,"Headquarters, California Department of Forestry & Fire Protection",,LNU005611,,KNIGHTS,,,,,,2017,6/21/2017 0:00,172,1707,Human,Equipment and vehicle use,,,,,3.56,B,38.65066,-122.729126,MISSING/NOT SPECIFIED,CA,SONOMA,6097,Sonoma County
14,400116541,SFO-2017CACDFLNU000111,NONFED,ST-NASF,ST/C&L,USCACDF,California Department of Forestry & Fire Protection,CACDF,"Headquarters, California Department of Forestry & Fire Protection",,LNU000111,,,,,,,,2017,6/24/2017 0:00,175,1145,Human,Equipment and vehicle use,,,,,0.24,A,38.349607,-122.607587,MISSING/NOT SPECIFIED,CA,SONOMA,6097,Sonoma County
15,400116542,SFO-2017CACDFLNU005988,NONFED,ST-NASF,ST/C&L,USCACDF,California Department of Forestry & Fire Protection,CACDF,"Headquarters, California Department of Forestry & Fire Protection",,LNU005988,,HOG,,,,,,2017,6/30/2017 0:00,181,1326,Human,Equipment and vehicle use,,,,,8.2,B,38.775416,-123.052059,MISSING/NOT SPECIFIED,CA,SONOMA,6097,Sonoma County
16,400116543,SFO-2017CACDFLNU006329,NONFED,ST-NASF,ST/C&L,USCACDF,California Department of Forestry & Fire Protection,CACDF,"Headquarters, California Department of Forestry & Fire Protection",,LNU006329,,ADOBE,2017_7200218_SOUTHERN LNU COMPLEX,2017_7200218_SOUTHERN LNU COMPLEX,,,SOUTHERN/CENTRAL LNU COMPLEX,2017,7/8/2017 0:00,189,1117,Human,Equipment and vehicle use,,,,,0.15,A,38.292914,-122.651808,MISSING/NOT SPECIFIED,CA,SONOMA,6097,Sonoma County
17,400116544,SFO-2017CACDFLNU007076,NONFED,ST-NASF,ST/C&L,USCACDF,California Department of Forestry & Fire Protection,CACDF,"Headquarters, California Department of Forestry & Fire Protection",,LNU007076,,MORELLI,,,,,,2017,7/27/2017 0:00,208,1200,Human,Equipment and vehicle use,,,,,0.01,A,38.313634,-122.605199,MISSING/NOT SPECIFIED,CA,SONOMA,6097,Sonoma County
18,400116545,SFO-2017CACDFLNU007368,NONFED,ST-NASF,ST/C&L,USCACDF,California Department of Forestry & Fire Protection,CACDF,"Headquarters, California Department of Forestry & Fire Protection",,LNU007368,,NORRBOM,2017_7200218_SOUTHERN LNU COMPLEX,2017_7200218_SOUTHERN LNU COMPLEX,,,SOUTHERN/CENTRAL LNU COMPLEX,2017,8/3/2017 0:00,215,1400,Human,Equipment and vehicle use,,,,,1.3,B,38.33414,-122.449098,MISSING/NOT SPECIFIED,CA,SONOMA,6097,Sonoma County
19,400116546,SFO-2017CACDFLNU008394,NONFED,ST-NASF,ST/C&L,USCACDF,California Department of Forestry & Fire Protection,CACDF,"Headquarters, California Department of Forestry & Fire Protection",,LNU008394,,LAKEVILLE,,,,,,2017,8/29/2017 0:00,241,1734,Human,Equipment and vehicle use,,,,,0.01,A,38.1733,-122.523105,MISSING/NOT SPECIFIED,CA,SONOMA,6097,Sonoma County
20,400118177,SFO-2017CACDFLNU005599,NONFED,ST-NASF,ST/C&L,USCACDF,California Department of Forestry & Fire Protection,CACDF,"Headquarters, California Department of Forestry & Fire Protection",,LNU005599,,WATER,,,,,,2017,6/21/2017 0:00,172,1320,Human,Smoking,,,,,0.01,A,38.510082,-122.727213,MISSING/NOT SPECIFIED,CA,SONOMA,6097,Sonoma County
21,400127770,SFO-2017CACDFLNU008425,NONFED,ST-NASF,ST/C&L,USCACDF,California Department of Forestry & Fire Protection,CACDF,"Headquarters, California Department of Forestry & Fire Protection",,LNU008425,,SPRING,,,,,,2017,8/30/2017 0:00,242,1348,Human,Debris and open burning,,8/30/2017 0:00,242,1421,12,C,38.223898,-122.714686,MISSING/NOT SPECIFIED,CA,SONOMA,6097,Sonoma County
22,400133927,SFO-2017CACDFLNU002444,NONFED,ST-NASF,ST/C&L,USCACDF,California Department of Forestry & Fire Protection,CACDF,"Headquarters, California Department of Forestry & Fire Protection",,LNU002444,,STAGE GULCH RD / ADOBE RD,,,,,,2017,3/18/2017 0:00,77,747,Human,Debris and open burning,,,,,0.01,A,38.242731,-122.505542,MISSING/NOT SPECIFIED,CA,SONOMA,6097,Sonoma County
23,400133928,SFO-2017CACDFLNU005033,NONFED,ST-NASF,ST/C&L,USCACDF,California Department of Forestry & Fire Protection,CACDF,"Headquarters, California Department of Forestry & Fire Protection",,LNU005033,,BEI RD  CAZADERO,,,,,,2017,6/8/2017 0:00,159,1218,Human,Debris and open burning,,,,,0.01,A,38.533609,-123.089892,MISSING/NOT SPECIFIED,CA,SONOMA,6097,Sonoma County
24,400133929,SFO-2017CACDFLNU005808,NONFED,ST-NASF,ST/C&L,USCACDF,California Department of Forestry & Fire Protection,CACDF,"Headquarters, California Department of Forestry & Fire Protection",,LNU005808,,PETALUMA HILL RD  COTATI,,,,,,2017,6/26/2017 0:00,177,1132,Human,Debris and open burning,,,,,7,B,38.33848,-122.666858,MISSING/NOT SPECIFIED,CA,SONOMA,6097,Sonoma County
25,400133930,SFO-2017CACDFLNU007717,NONFED,ST-NASF,ST/C&L,USCACDF,California Department of Forestry & Fire Protection,CACDF,"Headquarters, California Department of Forestry & Fire Protection",,LNU007717,,WILLOW CREEK RD / HWY 1,,,,,,2017,8/12/2017 0:00,224,1307,Human,Debris and open burning,,,,,0.01,A,38.434631,-123.101647,MISSING/NOT SPECIFIED,CA,SONOMA,6097,Sonoma County
26,400133931,SFO-2017CACDFLNU007992,NONFED,ST-NASF,ST/C&L,USCACDF,California Department of Forestry & Fire Protection,CACDF,"Headquarters, California Department of Forestry & Fire Protection",,LNU007992,,HARRISON GRADE RD  OCCIDE,,,,,,2017,8/19/2017 0:00,231,1255,Human,Debris and open burning,,,,,0.1,A,38.417537,-122.936052,MISSING/NOT SPECIFIED,CA,SONOMA,6097,Sonoma County
27,400133932,SFO-2017CACDFLNU008227,NONFED,ST-NASF,ST/C&L,USCACDF,California Department of Forestry & Fire Protection,CACDF,"Headquarters, California Department of Forestry & Fire Protection",,LNU008227,,SYLVAN WY  MONTE_RIO,,,,,,2017,8/26/2017 0:00,238,1026,Human,Debris and open burning,,,,,0.01,A,38.464465,-123.040312,MISSING/NOT SPECIFIED,CA,SONOMA,6097,Sonoma County
28,400133933,SFO-2017CACDFLNU008283,NONFED,ST-NASF,ST/C&L,USCACDF,California Department of Forestry & Fire Protection,CACDF,"Headquarters, California Department of Forestry & Fire Protection",,LNU008283,,MADRONE,,,,,,2017,8/27/2017 0:00,239,1220,Human,Debris and open burning,,,,,0.12,A,38.338612,-122.512793,MISSING/NOT SPECIFIED,CA,SONOMA,6097,Sonoma County
29,400133934,SFO-2017CACDFLNU008842,NONFED,ST-NASF,ST/C&L,USCACDF,California Department of Forestry & Fire Protection,CACDF,"Headquarters, California Department of Forestry & Fire Protection",,LNU008842,,HWY 1   JENNER,,,,,,2017,9/8/2017 0:00,251,2116,Human,Debris and open burning,,,,,0.01,A,38.321215,-122.909821,MISSING/NOT SPECIFIED,CA,SONOMA,6097,Sonoma County
30,400133935,SFO-2017CACDFLNU009863,NONFED,ST-NASF,ST/C&L,USCACDF,California Department of Forestry & Fire Protection,CACDF,"Headquarters, California Department of Forestry & Fire Protection",,LNU009863,,EASTSIDE RD  WINDSOR,,,,,,2017,10/4/2017 0:00,277,933,Human,Debris and open burning,,,,,0.01,A,38.523705,-122.848217,MUNICIPAL/LOCAL,CA,SONOMA,6097,Sonoma County
31,400133936,SFO-2017CACDFLNU010503,NONFED,ST-NASF,ST/C&L,USCACDF,California Department of Forestry & Fire Protection,CACDF,"Headquarters, California Department of Forestry & Fire Protection",,LNU010503,,SEQUOIA RD  GUERNEVILLE,,,,,,2017,10/20/2017 0:00,293,1538,Human,Debris and open burning,,,,,0.01,A,38.523709,-122.983209,MISSING/NOT SPECIFIED,CA,SONOMA,6097,Sonoma County
32,400133937,SFO-2017CACDFLNU010803,NONFED,ST-NASF,ST/C&L,USCACDF,California Department of Forestry & Fire Protection,CACDF,"Headquarters, California Department of Forestry & Fire Protection",,LNU010803,,TARWATER RD  SANTA_ROSA,,,,,,2017,10/29/2017 0:00,302,709,Human,Debris and open burning,,,,,0.01,A,38.51743,-122.60409,MISSING/NOT SPECIFIED,CA,SONOMA,6097,Sonoma County
33,400133938,SFO-2017CACDFLNU011728,NONFED,ST-NASF,ST/C&L,USCACDF,California Department of Forestry & Fire Protection,CACDF,"Headquarters, California Department of Forestry & Fire Protection",,LNU011728,,CANFIELD RD  BLOOMFIELD,,,,,,2017,11/22/2017 0:00,326,1417,Human,Debris and open burning,,,,,0.1,A,38.340081,-122.802889,MISSING/NOT SPECIFIED,CA,SONOMA,6097,Sonoma County
34,400138635,SFO-2017CACDFLNU010224,NONFED,ST-NASF,ST/C&L,USCACDF,California Department of Forestry & Fire Protection,CACDF,"Headquarters, California Department of Forestry & Fire Protection",,LNU010224,,WESTSIDE,,,,,,2017,10/13/2017 0:00,286,1526,Human,Arson/incendiarism,,10/13/2017 0:00,286,1549,0.25,A,38.516359,-122.890911,MISSING/NOT SPECIFIED,CA,SONOMA,6097,Sonoma County
35,400138654,SFO-2017CACDFLNU010345,NONFED,ST-NASF,ST/C&L,USCACDF,California Department of Forestry & Fire Protection,CACDF,"Headquarters, California Department of Forestry & Fire Protection",,LNU010345,,STUMP,,,,,,2017,10/16/2017 0:00,289,1944,Human,Arson/incendiarism,,10/16/2017 0:00,289,1955,0.01,A,38.583374,-123.33479,STATE,CA,SONOMA,6097,Sonoma County
36,400138675,SFO-2017CACDFLNU010432,NONFED,ST-NASF,ST/C&L,USCACDF,California Department of Forestry & Fire Protection,CACDF,"Headquarters, California Department of Forestry & Fire Protection",,LNU010432,,DRY CREEK RD  GEYSERVILLE,,,,,,2017,10/18/2017 0:00,291,1907,Human,Arson/incendiarism,,10/18/2017 0:00,291,1943,0.3,B,38.675817,-122.913517,MISSING/NOT SPECIFIED,CA,SONOMA,6097,Sonoma County
37,400139454,SFO-2017CACDFLNU003917,NONFED,ST-NASF,ST/C&L,USCACDF,California Department of Forestry & Fire Protection,CACDF,"Headquarters, California Department of Forestry & Fire Protection",,LNU003917,,GEYSERS RD / RIVER RD,,,,,,2017,5/6/2017 0:00,126,1710,Human,Arson/incendiarism,,,,,0.01,A,38.825755,-122.999624,MISSING/NOT SPECIFIED,CA,SONOMA,6097,Sonoma County
38,400139455,SFO-2017CACDFLNU006799,NONFED,ST-NASF,ST/C&L,USCACDF,California Department of Forestry & Fire Protection,CACDF,"Headquarters, California Department of Forestry & Fire Protection",,LNU006799,,CHERRY,,,,,,2017,7/19/2017 0:00,200,2025,Human,Arson/incendiarism,,,,,0.01,A,38.499599,-123.022659,MISSING/NOT SPECIFIED,CA,SONOMA,6097,Sonoma County
39,400139456,SFO-2017CACDFLNU007551,NONFED,ST-NASF,ST/C&L,USCACDF,California Department of Forestry & Fire Protection,CACDF,"Headquarters, California Department of Forestry & Fire Protection",,LNU007551,,EASTSIDE 2,,,,,,2017,8/7/2017 0:00,219,2018,Human,Arson/incendiarism,,,,,0.05,A,38.544517,-122.845317,MISSING/NOT SPECIFIED,CA,SONOMA,6097,Sonoma County
40,400139457,SFO-2017CACDFLNU007949,NONFED,ST-NASF,ST/C&L,USCACDF,California Department of Forestry & Fire Protection,CACDF,"Headquarters, California Department of Forestry & Fire Protection",,LNU007949,,NEELEY,,,,,,2017,8/18/2017 0:00,230,1426,Human,Arson/incendiarism,,,,,0.01,A,38.489833,-123.004667,MISSING/NOT SPECIFIED,CA,SONOMA,6097,Sonoma County
41,400139458,SFO-2017CACDFLNU010177,NONFED,ST-NASF,ST/C&L,USCACDF,California Department of Forestry & Fire Protection,CACDF,"Headquarters, California Department of Forestry & Fire Protection",,LNU010177,,EAST,,,,,,2017,10/12/2017 0:00,285,535,Human,Arson/incendiarism,,,,,0.8,B,38.532078,-122.848553,MUNICIPAL/LOCAL,CA,SONOMA,6097,Sonoma County
42,400145200,SFO-2017CACDFLNU004515,NONFED,ST-NASF,ST/C&L,USCACDF,California Department of Forestry & Fire Protection,CACDF,"Headquarters, California Department of Forestry & Fire Protection",,LNU004515,,GEYSERS,,,,,,2017,5/24/2017 0:00,144,1710,Human,Missing data/not specified/undetermined,,5/24/2017 0:00,144,2255,9.5,B,38.826967,-123.001017,MISSING/NOT SPECIFIED,CA,SONOMA,6097,Sonoma County
43,400146351,SFO-2017CACDFLNU005809,NONFED,ST-NASF,ST/C&L,USCACDF,California Department of Forestry & Fire Protection,CACDF,"Headquarters, California Department of Forestry & Fire Protection",,LNU005809,,CLOVERDALE,,,,,,2017,6/26/2017 0:00,177,1146,Human,Missing data/not specified/undetermined,,6/26/2017 0:00,177,1532,2.31,B,38.83592,-123.02065,MISSING/NOT SPECIFIED,CA,SONOMA,6097,Sonoma County
44,400146558,SFO-2017CACDFLNU005992,NONFED,ST-NASF,ST/C&L,USCACDF,California Department of Forestry & Fire Protection,CACDF,"Headquarters, California Department of Forestry & Fire Protection",,LNU005992,,ARMSTRONG WOODS RD / PALO,,,,,,2017,6/30/2017 0:00,181,1640,Human,Missing data/not specified/undetermined,,6/30/2017 0:00,181,1647,0.01,A,38.502857,-122.997565,MISSING/NOT SPECIFIED,CA,SONOMA,6097,Sonoma County
45,400146638,SFO-2017CACDFLNU006060,NONFED,ST-NASF,ST/C&L,USCACDF,California Department of Forestry & Fire Protection,CACDF,"Headquarters, California Department of Forestry & Fire Protection",,LNU006060,,MOUNTAIN,,,,,,2017,7/2/2017 0:00,183,1241,Human,Missing data/not specified/undetermined,,7/2/2017 0:00,183,1345,3.4,B,38.374693,-122.624682,MISSING/NOT SPECIFIED,CA,SONOMA,6097,Sonoma County
46,400146809,SFO-2017CACDFLNU006178,NONFED,ST-NASF,ST/C&L,USCACDF,California Department of Forestry & Fire Protection,CACDF,"Headquarters, California Department of Forestry & Fire Protection",,LNU006178,,JEWETT,,,,,,2017,7/4/2017 0:00,185,1719,Human,Missing data/not specified/undetermined,,7/4/2017 0:00,185,1730,0.3,B,38.285869,-122.709969,MISSING/NOT SPECIFIED,CA,SONOMA,6097,Sonoma County
47,400147701,SFO-2017CACDFLNU006844,NONFED,ST-NASF,ST/C&L,USCACDF,California Department of Forestry & Fire Protection,CACDF,"Headquarters, California Department of Forestry & Fire Protection",,LNU006844,,CLOVERDALE,,,,,,2017,7/21/2017 0:00,202,1318,Human,Missing data/not specified/undetermined,,7/21/2017 0:00,202,1420,2.5,B,38.832793,-123.016522,MISSING/NOT SPECIFIED,CA,SONOMA,6097,Sonoma County
48,400148107,SFO-2017CACDFLNU007254,NONFED,ST-NASF,ST/C&L,USCACDF,California Department of Forestry & Fire Protection,CACDF,"Headquarters, California Department of Forestry & Fire Protection",,LNU007254,,INDEPENDENCE,,,,,,2017,7/31/2017 0:00,212,1107,Human,Missing data/not specified/undetermined,,7/31/2017 0:00,212,1736,4.25,B,38.679894,-122.880806,MISSING/NOT SPECIFIED,CA,SONOMA,6097,Sonoma County
49,400148108,SFO-2017CACDFLNU007256,NONFED,ST-NASF,ST/C&L,USCACDF,California Department of Forestry & Fire Protection,CACDF,"Headquarters, California Department of Forestry & Fire Protection",,LNU007256,,INDEPENDENCE 2,,,,,,2017,7/31/2017 0:00,212,1135,Human,Missing data/not specified/undetermined,,7/31/2017 0:00,212,1736,2.5,B,38.679894,-122.880806,MISSING/NOT SPECIFIED,CA,SONOMA,6097,Sonoma County
50,400148200,SFO-2017CACDFLNU007364,NONFED,ST-NASF,ST/C&L,USCACDF,California Department of Forestry & Fire Protection,CACDF,"Headquarters, California Department of Forestry & Fire Protection",,LNU007364,,LAKEVILLE,,,,,,2017,8/3/2017 0:00,215,1121,Human,Missing data/not specified/undetermined,,8/3/2017 0:00,215,1221,37,C,38.152196,-122.487576,MISSING/NOT SPECIFIED,CA,SONOMA,6097,Sonoma County
51,400148709,SFO-2017CACDFLNU008072,NONFED,ST-NASF,ST/C&L,USCACDF,California Department of Forestry & Fire Protection,CACDF,"Headquarters, California Department of Forestry & Fire Protection",,LNU008072,,HIATT,,,,,,2017,8/21/2017 0:00,233,1631,Human,Missing data/not specified/undetermined,,8/21/2017 0:00,233,1703,0.34,B,38.76614,-123.016995,MISSING/NOT SPECIFIED,CA,SONOMA,6097,Sonoma County
52,400148825,SFO-2017CACDFLNU008194,NONFED,ST-NASF,ST/C&L,USCACDF,California Department of Forestry & Fire Protection,CACDF,"Headquarters, California Department of Forestry & Fire Protection",,LNU008194,,FREESTONE,,,,,,2017,8/25/2017 0:00,237,1236,Human,Missing data/not specified/undetermined,,8/25/2017 0:00,237,1259,0.5,B,38.378034,-122.926386,MISSING/NOT SPECIFIED,CA,SONOMA,6097,Sonoma County
53,400148931,SFO-2017CACDFLNU008288,NONFED,ST-NASF,ST/C&L,USCACDF,California Department of Forestry & Fire Protection,CACDF,"Headquarters, California Department of Forestry & Fire Protection",,LNU008288,,BODEGA,,,,,,2017,8/27/2017 0:00,239,1317,Human,Missing data/not specified/undetermined,,8/28/2017 0:00,240,1248,18,C,38.263567,-122.723223,MISSING/NOT SPECIFIED,CA,SONOMA,6097,Sonoma County
54,400148998,SFO-2017CACDFLNU008433,NONFED,ST-NASF,ST/C&L,USCACDF,California Department of Forestry & Fire Protection,CACDF,"Headquarters, California Department of Forestry & Fire Protection",,LNU008433,,BENNETT,,,,,,2017,8/30/2017 0:00,242,1636,Human,Missing data/not specified/undetermined,,8/30/2017 0:00,242,1701,1,B,38.386222,-122.600533,MISSING/NOT SPECIFIED,CA,SONOMA,6097,Sonoma County
55,400149075,SFO-2017CACDFLNU008539,NONFED,ST-NASF,ST/C&L,USCACDF,California Department of Forestry & Fire Protection,CACDF,"Headquarters, California Department of Forestry & Fire Protection",,LNU008539,,LILA,,,,,,2017,9/1/2017 0:00,244,1837,Human,Missing data/not specified/undetermined,,9/1/2017 0:00,244,1855,1.2,B,38.264762,-122.60175,MISSING/NOT SPECIFIED,CA,SONOMA,6097,Sonoma County
56,400149504,SFO-2017CACDFLNU009078,NONFED,ST-NASF,ST/C&L,USCACDF,California Department of Forestry & Fire Protection,CACDF,"Headquarters, California Department of Forestry & Fire Protection",,LNU009078,,SHAHAN,,,,,,2017,9/14/2017 0:00,257,1400,Human,Missing data/not specified/undetermined,,9/14/2017 0:00,257,1435,1,B,38.814588,-123.020862,MISSING/NOT SPECIFIED,CA,SONOMA,6097,Sonoma County
57,400149616,SFO-2017CACDFLNU009251,NONFED,ST-NASF,ST/C&L,USCACDF,California Department of Forestry & Fire Protection,CACDF,"Headquarters, California Department of Forestry & Fire Protection",,LNU009251,,GULCH,,,,,,2017,9/18/2017 0:00,261,1759,Human,Missing data/not specified/undetermined,,9/18/2017 0:00,261,1908,9,B,38.22201,-122.538851,STATE,CA,SONOMA,6097,Sonoma County
58,400149779,SFO-2017CACDFLNU009480,NONFED,ST-NASF,ST/C&L,USCACDF,California Department of Forestry & Fire Protection,CACDF,"Headquarters, California Department of Forestry & Fire Protection",,LNU009480,,JOY,,,,,,2017,9/24/2017 0:00,267,1648,Human,Missing data/not specified/undetermined,,9/24/2017 0:00,267,2200,1,B,38.384154,-122.967747,MISSING/NOT SPECIFIED,CA,SONOMA,6097,Sonoma County
59,400149929,SFO-2017CACDFLNU009772,NONFED,ST-NASF,ST/C&L,USCACDF,California Department of Forestry & Fire Protection,CACDF,"Headquarters, California Department of Forestry & Fire Protection",,LNU009772,,TRINITY,,,,,,2017,10/2/2017 0:00,275,417,Human,Missing data/not specified/undetermined,,10/2/2017 0:00,275,553,0.1,A,38.386886,-122.493344,MISSING/NOT SPECIFIED,CA,SONOMA,6097,Sonoma County
60,400149950,SFO-2017CACDFLNU009816,NONFED,ST-NASF,ST/C&L,USCACDF,California Department of Forestry & Fire Protection,CACDF,"Headquarters, California Department of Forestry & Fire Protection",,LNU009816,,OLD,,,,,,2017,10/3/2017 0:00,276,505,Human,Missing data/not specified/undetermined,,10/3/2017 0:00,276,539,0.35,B,38.514873,-122.98337,MISSING/NOT SPECIFIED,CA,SONOMA,6097,Sonoma County
61,400150183,SFO-2017CACDFLNU010267,NONFED,ST-NASF,ST/C&L,USCACDF,California Department of Forestry & Fire Protection,CACDF,"Headquarters, California Department of Forestry & Fire Protection",,LNU010267,,SKAGGS,,,,,,2017,10/14/2017 0:00,287,1914,Human,Missing data/not specified/undetermined,,10/14/2017 0:00,287,2004,0.5,B,38.651906,-123.399441,MISSING/NOT SPECIFIED,CA,SONOMA,6097,Sonoma County
62,400154267,SFO-2017CACDFLNU002259,NONFED,ST-NASF,ST/C&L,USCACDF,California Department of Forestry & Fire Protection,CACDF,"Headquarters, California Department of Forestry & Fire Protection",,LNU002259,,IRIS,,,,,,2017,3/11/2017 0:00,70,1530,Human,Missing data/not specified/undetermined,,,,,0.1,A,38.716622,-123.456328,COUNTY,CA,SONOMA,6097,Sonoma County
63,400154268,SFO-2017CACDFLNU004120,NONFED,ST-NASF,ST/C&L,USCACDF,California Department of Forestry & Fire Protection,CACDF,"Headquarters, California Department of Forestry & Fire Protection",,LNU004120,,RIDGE OAKS RD  GEYSERVILL,,,,,,2017,5/13/2017 0:00,133,1457,Human,Missing data/not specified/undetermined,,,,,0.01,A,38.732349,-122.902506,MISSING/NOT SPECIFIED,CA,SONOMA,6097,Sonoma County
64,400154269,SFO-2017CACDFLNU004176,NONFED,ST-NASF,ST/C&L,USCACDF,California Department of Forestry & Fire Protection,CACDF,"Headquarters, California Department of Forestry & Fire Protection",,LNU004176,,BODEGA AV  TWO_ROCK,,,,,,2017,5/15/2017 0:00,135,1433,Human,Missing data/not specified/undetermined,,,,,0.01,A,38.257701,-122.779665,MISSING/NOT SPECIFIED,CA,SONOMA,6097,Sonoma County
65,400154270,SFO-2017CACDFLNU004325,NONFED,ST-NASF,ST/C&L,USCACDF,California Department of Forestry & Fire Protection,CACDF,"Headquarters, California Department of Forestry & Fire Protection",,LNU004325,,SWEETWATER,,,,,,2017,5/19/2017 0:00,139,1614,Human,Missing data/not specified/undetermined,,,,,0.75,B,38.545759,-122.980809,MISSING/NOT SPECIFIED,CA,SONOMA,6097,Sonoma County
66,400154271,SFO-2017CACDFLNU004364,NONFED,ST-NASF,ST/C&L,USCACDF,California Department of Forestry & Fire Protection,CACDF,"Headquarters, California Department of Forestry & Fire Protection",,LNU004364,,FORT ROSS RD  FORT_ROSS,,,,,,2017,5/20/2017 0:00,140,1511,Human,Missing data/not specified/undetermined,,,,,0.25,A,38.525946,-123.175197,MISSING/NOT SPECIFIED,CA,SONOMA,6097,Sonoma County
67,400154272,SFO-2017CACDFLNU004382,NONFED,ST-NASF,ST/C&L,USCACDF,California Department of Forestry & Fire Protection,CACDF,"Headquarters, California Department of Forestry & Fire Protection",,LNU004382,,VIEWCREST DR  SONOMA,,,,,,2017,5/21/2017 0:00,141,132,Human,Missing data/not specified/undetermined,,,,,0.2,A,38.299675,-122.553128,MISSING/NOT SPECIFIED,CA,SONOMA,6097,Sonoma County
68,400154273,SFO-2017CACDFLNU004580,NONFED,ST-NASF,ST/C&L,USCACDF,California Department of Forestry & Fire Protection,CACDF,"Headquarters, California Department of Forestry & Fire Protection",,LNU004580,,BONNESS RD  SCHELLVILLE,,,,,,2017,5/26/2017 0:00,146,1652,Human,Missing data/not specified/undetermined,,,,,0.05,A,38.248537,-122.482333,MISSING/NOT SPECIFIED,CA,SONOMA,6097,Sonoma County
69,400154274,SFO-2017CACDFLNU004650,NONFED,ST-NASF,ST/C&L,USCACDF,California Department of Forestry & Fire Protection,CACDF,"Headquarters, California Department of Forestry & Fire Protection",,LNU004650,,PEPPER RD  PETALUMA,,,,,,2017,5/28/2017 0:00,148,1439,Human,Missing data/not specified/undetermined,,,,,0.01,A,38.283661,-122.705652,MISSING/NOT SPECIFIED,CA,SONOMA,6097,Sonoma County
70,400154275,SFO-2017CACDFLNU004876,NONFED,ST-NASF,ST/C&L,USCACDF,California Department of Forestry & Fire Protection,CACDF,"Headquarters, California Department of Forestry & Fire Protection",,LNU004876,,TREATMENT,,,,,,2017,6/3/2017 0:00,154,1632,Human,Missing data/not specified/undetermined,,,,,0.15,A,38.800613,-123.012933,MISSING/NOT SPECIFIED,CA,SONOMA,6097,Sonoma County
71,400154276,SFO-2017CACDFLNU005283,NONFED,ST-NASF,ST/C&L,USCACDF,California Department of Forestry & Fire Protection,CACDF,"Headquarters, California Department of Forestry & Fire Protection",,LNU005283,,YURT,,,,,,2017,6/15/2017 0:00,166,1146,Human,Missing data/not specified/undetermined,,,,,0.6,B,38.784167,-122.965278,MISSING/NOT SPECIFIED,CA,SONOMA,6097,Sonoma County
72,400154277,SFO-2017CACDFLNU005358,NONFED,ST-NASF,ST/C&L,USCACDF,California Department of Forestry & Fire Protection,CACDF,"Headquarters, California Department of Forestry & Fire Protection",,LNU005358,,MARK WEST SPRINGS RD  SAN,,,,,,2017,6/16/2017 0:00,167,1952,Human,Missing data/not specified/undetermined,,,,,0.03,A,38.548256,-122.720649,MISSING/NOT SPECIFIED,CA,SONOMA,6097,Sonoma County
73,400154278,SFO-2017CACDFLNU005396,NONFED,ST-NASF,ST/C&L,USCACDF,California Department of Forestry & Fire Protection,CACDF,"Headquarters, California Department of Forestry & Fire Protection",,LNU005396,,CANYON,,,,,,2017,6/17/2017 0:00,168,1706,Human,Missing data/not specified/undetermined,,,,,0.01,A,38.522011,-122.982573,MISSING/NOT SPECIFIED,CA,SONOMA,6097,Sonoma County
74,400154279,SFO-2017CACDFLNU005984,NONFED,ST-NASF,ST/C&L,USCACDF,California Department of Forestry & Fire Protection,CACDF,"Headquarters, California Department of Forestry & Fire Protection",,LNU005984,,ROBLAR,,,,,,2017,6/30/2017 0:00,181,1252,Human,Missing data/not specified/undetermined,,,,,6,B,38.301133,-122.71545,MISSING/NOT SPECIFIED,CA,SONOMA,6097,Sonoma County
75,400154280,SFO-2017CACDFLNU006891,NONFED,ST-NASF,ST/C&L,USCACDF,California Department of Forestry & Fire Protection,CACDF,"Headquarters, California Department of Forestry & Fire Protection",,LNU006891,,SIRI,,,,,,2017,7/22/2017 0:00,203,1723,Human,Missing data/not specified/undetermined,,,,,0.01,A,38.487452,-123.025468,MISSING/NOT SPECIFIED,CA,SONOMA,6097,Sonoma County
76,400154281,SFO-2017CACDFLNU007012,NONFED,ST-NASF,ST/C&L,USCACDF,California Department of Forestry & Fire Protection,CACDF,"Headquarters, California Department of Forestry & Fire Protection",,LNU007012,,SPRINGS,,,,,,2017,7/25/2017 0:00,206,1515,Human,Missing data/not specified/undetermined,,,,,2.36,B,38.371146,-122.537311,MISSING/NOT SPECIFIED,CA,SONOMA,6097,Sonoma County
77,400154282,SFO-2017CACDFLNU007014,NONFED,ST-NASF,ST/C&L,USCACDF,California Department of Forestry & Fire Protection,CACDF,"Headquarters, California Department of Forestry & Fire Protection",,LNU007014,,WOLF RUN / WARM SPRINGS R,,,,,,2017,7/25/2017 0:00,206,1536,Human,Missing data/not specified/undetermined,,,,,0.5,B,38.370896,-122.537514,MISSING/NOT SPECIFIED,CA,SONOMA,6097,Sonoma County
78,400154283,SFO-2017CACDFLNU007283,NONFED,ST-NASF,ST/C&L,USCACDF,California Department of Forestry & Fire Protection,CACDF,"Headquarters, California Department of Forestry & Fire Protection",,LNU007283,,CHALK HILL RD / WRIGHT RA,,,,,,2017,8/1/2017 0:00,213,1008,Human,Missing data/not specified/undetermined,,,,,0.04,A,38.582222,-122.764444,MISSING/NOT SPECIFIED,CA,SONOMA,6097,Sonoma County
79,400154284,SFO-2017CACDFLNU007299,NONFED,ST-NASF,ST/C&L,USCACDF,California Department of Forestry & Fire Protection,CACDF,"Headquarters, California Department of Forestry & Fire Protection",,LNU007299,,ROCK,,,,,,2017,8/1/2017 0:00,213,1457,Human,Missing data/not specified/undetermined,,,,,0.1,A,38.25842,-122.759853,MISSING/NOT SPECIFIED,CA,SONOMA,6097,Sonoma County
80,400154285,SFO-2017CACDFLNU007328,NONFED,ST-NASF,ST/C&L,USCACDF,California Department of Forestry & Fire Protection,CACDF,"Headquarters, California Department of Forestry & Fire Protection",,LNU007328,,BODEGA AV / SPRING HILL R,,,,,,2017,8/2/2017 0:00,214,1058,Human,Missing data/not specified/undetermined,,,,,0.25,A,38.257701,-122.779665,MISSING/NOT SPECIFIED,CA,SONOMA,6097,Sonoma County
81,400154286,SFO-2017CACDFLNU007752,NONFED,ST-NASF,ST/C&L,USCACDF,California Department of Forestry & Fire Protection,CACDF,"Headquarters, California Department of Forestry & Fire Protection",,LNU007752,,ROCKPILE,,,,,,2017,8/13/2017 0:00,225,37,Human,Missing data/not specified/undetermined,,,,,2.7,B,38.716516,-123.049309,UNDEFINED FEDERAL,CA,SONOMA,6097,Sonoma County
82,400154287,SFO-2017CACDFLNU007869,NONFED,ST-NASF,ST/C&L,USCACDF,California Department of Forestry & Fire Protection,CACDF,"Headquarters, California Department of Forestry & Fire Protection",,LNU007869,,SONOMA MOUNTAIN RD  PENNG,,,,,,2017,8/15/2017 0:00,227,2330,Human,Missing data/not specified/undetermined,,,,,0.01,A,38.33458,-122.592815,MISSING/NOT SPECIFIED,CA,SONOMA,6097,Sonoma County
83,400154288,SFO-2017CACDFLNU007988,NONFED,ST-NASF,ST/C&L,USCACDF,California Department of Forestry & Fire Protection,CACDF,"Headquarters, California Department of Forestry & Fire Protection",,LNU007988,,HWY 116  N/ BROOKSIDE LN,,,,,,2017,8/19/2017 0:00,231,1147,Human,Missing data/not specified/undetermined,,,,,0.01,A,38.501024,-123.005161,MISSING/NOT SPECIFIED,CA,SONOMA,6097,Sonoma County
84,400154289,SFO-2017CACDFLNU008202,NONFED,ST-NASF,ST/C&L,USCACDF,California Department of Forestry & Fire Protection,CACDF,"Headquarters, California Department of Forestry & Fire Protection",,LNU008202,,BODEGA HWY  FREESTONE,,,,,,2017,8/25/2017 0:00,237,1453,Human,Missing data/not specified/undetermined,,,,,0.01,A,38.375685,-122.905164,MISSING/NOT SPECIFIED,CA,SONOMA,6097,Sonoma County
85,400154290,SFO-2017CACDFLNU008309,NONFED,ST-NASF,ST/C&L,USCACDF,California Department of Forestry & Fire Protection,CACDF,"Headquarters, California Department of Forestry & Fire Protection",,LNU008309,,MCLANE AV  GUERNEVILLE,,,,,,2017,8/28/2017 0:00,240,124,Human,Missing data/not specified/undetermined,,,,,0.1,A,38.495542,-123.013216,MISSING/NOT SPECIFIED,CA,SONOMA,6097,Sonoma County
86,400154291,SFO-2017CACDFLNU008351,NONFED,ST-NASF,ST/C&L,USCACDF,California Department of Forestry & Fire Protection,CACDF,"Headquarters, California Department of Forestry & Fire Protection",,LNU008351,,LESLIE,,,,,,2017,8/28/2017 0:00,240,1824,Human,Missing data/not specified/undetermined,,,,,0.01,A,38.549156,-122.711412,MISSING/NOT SPECIFIED,CA,SONOMA,6097,Sonoma County
87,400154292,SFO-2017CACDFLNU008376,NONFED,ST-NASF,ST/C&L,USCACDF,California Department of Forestry & Fire Protection,CACDF,"Headquarters, California Department of Forestry & Fire Protection",,LNU008376,,LAUGHLIN RD / ARMSTRONG W,,,,,,2017,8/29/2017 0:00,241,1201,Human,Missing data/not specified/undetermined,,,,,0.01,A,38.512816,-122.995539,MISSING/NOT SPECIFIED,CA,SONOMA,6097,Sonoma County
88,400154293,SFO-2017CACDFLNU008363,NONFED,ST-NASF,ST/C&L,USCACDF,California Department of Forestry & Fire Protection,CACDF,"Headquarters, California Department of Forestry & Fire Protection",,LNU008363,,BONNEAU RD / FREMONT DR,,,,,,2017,8/29/2017 0:00,241,1519,Human,Missing data/not specified/undetermined,,,,,0.4,B,38.236201,-122.461507,MISSING/NOT SPECIFIED,CA,SONOMA,6097,Sonoma County
89,400154294,SFO-2017CACDFLNU008508,NONFED,ST-NASF,ST/C&L,USCACDF,California Department of Forestry & Fire Protection,CACDF,"Headquarters, California Department of Forestry & Fire Protection",,LNU008508,,MARINERS DR  THE_SEA_RANC,,,,,,2017,9/1/2017 0:00,244,1003,Human,Missing data/not specified/undetermined,,,,,0.01,A,38.706765,-123.447279,MISSING/NOT SPECIFIED,CA,SONOMA,6097,Sonoma County
90,400154295,SFO-2017CACDFLNU008537,NONFED,ST-NASF,ST/C&L,USCACDF,California Department of Forestry & Fire Protection,CACDF,"Headquarters, California Department of Forestry & Fire Protection",,LNU008537,,CARRIGER RD / GROVE ST,,,,,,2017,9/1/2017 0:00,244,1819,Human,Missing data/not specified/undetermined,,,,,0.16,A,38.293969,-122.503054,MISSING/NOT SPECIFIED,CA,SONOMA,6097,Sonoma County
91,400154296,SFO-2017CACDFLNU008588,NONFED,ST-NASF,ST/C&L,USCACDF,California Department of Forestry & Fire Protection,CACDF,"Headquarters, California Department of Forestry & Fire Protection",,LNU008588,,ARNOLD DR / MARTIN ST,,,,,,2017,9/2/2017 0:00,245,1539,Human,Missing data/not specified/undetermined,,,,,0.1,A,38.344622,-122.514335,MISSING/NOT SPECIFIED,CA,SONOMA,6097,Sonoma County
92,400154297,SFO-2017CACDFLNU008604,NONFED,ST-NASF,ST/C&L,USCACDF,California Department of Forestry & Fire Protection,CACDF,"Headquarters, California Department of Forestry & Fire Protection",,LNU008604,,COLEMAN VALLEY RD / HWY 1,,,,,,2017,9/2/2017 0:00,245,1944,Human,Missing data/not specified/undetermined,,,,,0.01,A,38.365044,-123.070617,MISSING/NOT SPECIFIED,CA,SONOMA,6097,Sonoma County
93,400154298,SFO-2017CACDFLNU008665,NONFED,ST-NASF,ST/C&L,USCACDF,California Department of Forestry & Fire Protection,CACDF,"Headquarters, California Department of Forestry & Fire Protection",,LNU008665,,STEWARTS,,,,,,2017,9/4/2017 0:00,247,319,Human,Missing data/not specified/undetermined,,,,,1.57,B,38.669109,-123.033837,MISSING/NOT SPECIFIED,CA,SONOMA,6097,Sonoma County
94,400154299,SFO-2017CACDFLNU008905,NONFED,ST-NASF,ST/C&L,USCACDF,California Department of Forestry & Fire Protection,CACDF,"Headquarters, California Department of Forestry & Fire Protection",,LNU008905,,FISH HEAD POINT JENNER,,,,,,2017,9/10/2017 0:00,253,916,Human,Missing data/not specified/undetermined,,,,,0.01,A,38.462793,-123.150394,STATE,CA,SONOMA,6097,Sonoma County
95,400154300,SFO-2017CACDFLNU008933,NONFED,ST-NASF,ST/C&L,USCACDF,California Department of Forestry & Fire Protection,CACDF,"Headquarters, California Department of Forestry & Fire Protection",,LNU008933,,ADOBE RD  PENNGROVE,,,,,,2017,9/11/2017 0:00,254,225,Human,Missing data/not specified/undetermined,,,,,0.1,A,38.25246,-122.57748,STATE,CA,SONOMA,6097,Sonoma County
96,400154301,SFO-2017CACDFLNU010000,NONFED,ST-NASF,ST/C&L,USCACDF,California Department of Forestry & Fire Protection,CACDF,"Headquarters, California Department of Forestry & Fire Protection",,LNU010000,,RIEBLI RD  SANTA_ROSA,,,,,,2017,10/7/2017 0:00,280,2154,Human,Missing data/not specified/undetermined,,,,,0.01,A,38.51004,-122.717018,MISSING/NOT SPECIFIED,CA,SONOMA,6097,Sonoma County
97,400154302,SFO-2017CACDFLNU010140,NONFED,ST-NASF,ST/C&L,USCACDF,California Department of Forestry & Fire Protection,CACDF,"Headquarters, California Department of Forestry & Fire Protection",,LNU010140,,VISTA,,,,,,2017,10/11/2017 0:00,284,621,Human,Missing data/not specified/undetermined,,,,,0.1,A,38.252117,-122.717614,MISSING/NOT SPECIFIED,CA,SONOMA,6097,Sonoma County
98,400154303,SFO-2017CACDFLNU010585,NONFED,ST-NASF,ST/C&L,USCACDF,California Department of Forestry & Fire Protection,CACDF,"Headquarters, California Department of Forestry & Fire Protection",,LNU010585,,CLEAVELAND,,,,,,2017,10/23/2017 0:00,296,1344,Human,Missing data/not specified/undetermined,,,,,0.01,A,38.229175,-122.664112,MISSING/NOT SPECIFIED,CA,SONOMA,6097,Sonoma County
99,400154304,SFO-2017CACDFLNU010595,NONFED,ST-NASF,ST/C&L,USCACDF,California Department of Forestry & Fire Protection,CACDF,"Headquarters, California Department of Forestry & Fire Protection",,LNU010595,,FRATES,,,,,,2017,10/23/2017 0:00,296,1711,Human,Missing data/not specified/undetermined,,,,,0.01,A,38.25156,-122.578315,MISSING/NOT SPECIFIED,CA,SONOMA,6097,Sonoma County
100,400154305,SFO-2017CACDFLNU010774,NONFED,ST-NASF,ST/C&L,USCACDF,California Department of Forestry & Fire Protection,CACDF,"Headquarters, California Department of Forestry & Fire Protection",,LNU010774,,BAY,,,,,,2017,10/28/2017 0:00,301,1426,Human,Missing data/not specified/undetermined,,,,,0.01,A,38.345434,-123.010523,MISSING/NOT SPECIFIED,CA,SONOMA,6097,Sonoma County
101,400154306,SFO-2017CACDFLNU010893,NONFED,ST-NASF,ST/C&L,USCACDF,California Department of Forestry & Fire Protection,CACDF,"Headquarters, California Department of Forestry & Fire Protection",,LNU010893,,GREEN VALLEY RD  GRATON,,,,,,2017,10/31/2017 0:00,304,1251,Human,Missing data/not specified/undetermined,,,,,0.5,B,38.46147,-122.944922,MISSING/NOT SPECIFIED,CA,SONOMA,6097,Sonoma County
102,400154307,SFO-2017CACDFLNU010980,NONFED,ST-NASF,ST/C&L,USCACDF,California Department of Forestry & Fire Protection,CACDF,"Headquarters, California Department of Forestry & Fire Protection",,LNU010980,,WARM,,,,,,2017,11/2/2017 0:00,306,1341,Human,Missing data/not specified/undetermined,,,,,0.01,A,38.393036,-122.549485,MISSING/NOT SPECIFIED,CA,SONOMA,6097,Sonoma County
103,400154308,SFO-2017CACDFLNU011080,NONFED,ST-NASF,ST/C&L,USCACDF,California Department of Forestry & Fire Protection,CACDF,"Headquarters, California Department of Forestry & Fire Protection",,LNU011080,,MEEKER,,,,,,2017,11/5/2017 0:00,309,1158,Human,Missing data/not specified/undetermined,,,,,0.01,A,38.43891,-122.974946,MISSING/NOT SPECIFIED,CA,SONOMA,6097,Sonoma County
104,400154309,SFO-2017CACDFLNU011126,NONFED,ST-NASF,ST/C&L,USCACDF,California Department of Forestry & Fire Protection,CACDF,"Headquarters, California Department of Forestry & Fire Protection",,LNU011126,,CARRIGER,,,,,,2017,11/6/2017 0:00,310,1511,Human,Missing data/not specified/undetermined,,,,,0.1,A,38.298738,-122.503004,MISSING/NOT SPECIFIED,CA,SONOMA,6097,Sonoma County
105,400154310,SFO-2017CACDFLNU011135,NONFED,ST-NASF,ST/C&L,USCACDF,California Department of Forestry & Fire Protection,CACDF,"Headquarters, California Department of Forestry & Fire Protection",,LNU011135,,TOYON,,,,,,2017,11/6/2017 0:00,310,1737,Human,Missing data/not specified/undetermined,,,,,0.01,A,38.785733,-122.969267,MISSING/NOT SPECIFIED,CA,SONOMA,6097,Sonoma County
106,400155839,SFO-2017CACDFLNU004233,NONFED,ST-NASF,ST/C&L,USCACDF,California Department of Forestry & Fire Protection,CACDF,"Headquarters, California Department of Forestry & Fire Protection",,LNU004233,,HIGHWAY,,,,,,2017,5/17/2017 0:00,137,122,Missing data/not specified/undetermined,Missing data/not specified/undetermined,,5/17/2017 0:00,137,151,0.25,A,38.820919,-123.012022,COUNTY,CA,SONOMA,6097,Sonoma County
107,400156770,SFO-2017CACDFLNU007982,NONFED,ST-NASF,ST/C&L,USCACDF,California Department of Forestry & Fire Protection,CACDF,"Headquarters, California Department of Forestry & Fire Protection",,LNU007982,,NEELEY,,,,,,2017,8/19/2017 0:00,231,1007,Missing data/not specified/undetermined,Missing data/not specified/undetermined,,8/19/2017 0:00,231,1103,1,B,38.492955,-123.007005,MISSING/NOT SPECIFIED,CA,SONOMA,6097,Sonoma County
108,400156862,SFO-2017CACDFLNU008529,NONFED,ST-NASF,ST/C&L,USCACDF,California Department of Forestry & Fire Protection,CACDF,"Headquarters, California Department of Forestry & Fire Protection",,LNU008529,,RANCH,,,,,,2017,9/1/2017 0:00,244,1524,Missing data/not specified/undetermined,Missing data/not specified/undetermined,,9/1/2017 0:00,244,1550,0.12,A,38.317517,-122.440114,MISSING/NOT SPECIFIED,CA,SONOMA,6097,Sonoma County
109,400156868,SFO-2017CACDFLNU008536,NONFED,ST-NASF,ST/C&L,USCACDF,California Department of Forestry & Fire Protection,CACDF,"Headquarters, California Department of Forestry & Fire Protection",,LNU008536,,SPRINGS,,,,,,2017,9/1/2017 0:00,244,1747,Missing data/not specified/undetermined,Missing data/not specified/undetermined,,9/2/2017 0:00,245,433,13.34,C,38.764833,-123.089,UNDEFINED FEDERAL,CA,SONOMA,6097,Sonoma County
110,400156939,SFO-2017CACDFLNU009169,NONFED,ST-NASF,ST/C&L,USCACDF,California Department of Forestry & Fire Protection,CACDF,"Headquarters, California Department of Forestry & Fire Protection",,LNU009169,,MILL,,,,,,2017,9/16/2017 0:00,259,1958,Missing data/not specified/undetermined,Missing data/not specified/undetermined,,9/16/2017 0:00,259,2121,0.02,A,38.591991,-122.962417,MISSING/NOT SPECIFIED,CA,SONOMA,6097,Sonoma County
111,400156951,SFO-2017CACDFLNU009263,NONFED,ST-NASF,ST/C&L,USCACDF,California Department of Forestry & Fire Protection,CACDF,"Headquarters, California Department of Forestry & Fire Protection",,LNU009263,,HWY 128   CLOVERDALE,,,,,,2017,9/19/2017 0:00,262,122,Missing data/not specified/undetermined,Missing data/not specified/undetermined,,9/19/2017 0:00,262,134,0.5,B,38.822953,-123.018804,MISSING/NOT SPECIFIED,CA,SONOMA,6097,Sonoma County
112,400157062,SFO-2017CACDFLNU009994,NONFED,ST-NASF,ST/C&L,USCACDF,California Department of Forestry & Fire Protection,CACDF,"Headquarters, California Department of Forestry & Fire Protection",,LNU009994,,FORT,,,,,,2017,10/7/2017 0:00,280,1913,Missing data/not specified/undetermined,Missing data/not specified/undetermined,,10/8/2017 0:00,281,25,18,C,38.51847,-123.246411,STATE,CA,SONOMA,6097,Sonoma County
113,400157093,SFO-2017CACDFLNU010195,NONFED,ST-NASF,ST/C&L,USCACDF,California Department of Forestry & Fire Protection,CACDF,"Headquarters, California Department of Forestry & Fire Protection",,LNU010195,,PRESTON,,,,,,2017,10/12/2017 0:00,285,1648,Missing data/not specified/undetermined,Missing data/not specified/undetermined,,10/12/2017 0:00,285,1712,0.01,A,38.846633,-123.015483,MISSING/NOT SPECIFIED,CA,SONOMA,6097,Sonoma County
114,400158911,SFO-2017CACDFLNU004088,NONFED,ST-NASF,ST/C&L,USCACDF,California Department of Forestry & Fire Protection,CACDF,"Headquarters, California Department of Forestry & Fire Protection",,LNU004088,,RACEWAY,,,,,,2017,5/12/2017 0:00,132,1054,Missing data/not specified/undetermined,Missing data/not specified/undetermined,,,,,0.01,A,38.151217,-122.4494,MISSING/NOT SPECIFIED,CA,SONOMA,6097,Sonoma County
115,400158912,SFO-2017CACDFLNU004615,NONFED,ST-NASF,ST/C&L,USCACDF,California Department of Forestry & Fire Protection,CACDF,"Headquarters, California Department of Forestry & Fire Protection",,LNU004615,,BROTHERS,,,,,,2017,5/27/2017 0:00,147,1439,Missing data/not specified/undetermined,Missing data/not specified/undetermined,,,,,0.02,A,38.323668,-123.038569,MISSING/NOT SPECIFIED,CA,SONOMA,6097,Sonoma County
116,400158913,SFO-2017CACDFLNU004914,NONFED,ST-NASF,ST/C&L,USCACDF,California Department of Forestry & Fire Protection,CACDF,"Headquarters, California Department of Forestry & Fire Protection",,LNU004914,,ELY,,,,,,2017,6/4/2017 0:00,155,2047,Missing data/not specified/undetermined,Missing data/not specified/undetermined,,,,,0.01,A,38.23894,-122.58772,MISSING/NOT SPECIFIED,CA,SONOMA,6097,Sonoma County
117,400158914,SFO-2017CACDFLNU005543,NONFED,ST-NASF,ST/C&L,USCACDF,California Department of Forestry & Fire Protection,CACDF,"Headquarters, California Department of Forestry & Fire Protection",,LNU005543,,ARNOLD,,,,,,2017,6/20/2017 0:00,171,1341,Missing data/not specified/undetermined,Missing data/not specified/undetermined,,,,,0.02,A,38.17295,-122.455833,MISSING/NOT SPECIFIED,CA,SONOMA,6097,Sonoma County
118,400158915,SFO-2017CACDFLNU005738,NONFED,ST-NASF,ST/C&L,USCACDF,California Department of Forestry & Fire Protection,CACDF,"Headquarters, California Department of Forestry & Fire Protection",,LNU005738,,ROBLAR,,,,,,2017,6/24/2017 0:00,175,1359,Missing data/not specified/undetermined,Missing data/not specified/undetermined,,,,,0.01,A,38.306413,-122.820428,MISSING/NOT SPECIFIED,CA,SONOMA,6097,Sonoma County
119,400158916,SFO-2017CACDFLNU007343,NONFED,ST-NASF,ST/C&L,USCACDF,California Department of Forestry & Fire Protection,CACDF,"Headquarters, California Department of Forestry & Fire Protection",,LNU007343,,CAMP,,,,,,2017,8/2/2017 0:00,214,1633,Missing data/not specified/undetermined,Missing data/not specified/undetermined,,,,,0.03,A,38.547035,-122.835891,MISSING/NOT SPECIFIED,CA,SONOMA,6097,Sonoma County
120,400158917,SFO-2017CACDFLNU007765,NONFED,ST-NASF,ST/C&L,USCACDF,California Department of Forestry & Fire Protection,CACDF,"Headquarters, California Department of Forestry & Fire Protection",,LNU007765,,CDF GLEN ELLEN FFS GLEN_E,,,,,,2017,8/13/2017 0:00,225,1014,Missing data/not specified/undetermined,Missing data/not specified/undetermined,,,,,0.01,A,38.364429,-122.510043,MISSING/NOT SPECIFIED,CA,SONOMA,6097,Sonoma County
121,400158918,SFO-2017CACDFLNU008284,NONFED,ST-NASF,ST/C&L,USCACDF,California Department of Forestry & Fire Protection,CACDF,"Headquarters, California Department of Forestry & Fire Protection",,LNU008284,,JOY,,,,,,2017,8/27/2017 0:00,239,1234,Missing data/not specified/undetermined,Missing data/not specified/undetermined,,,,,0.03,A,38.373056,-122.9625,MISSING/NOT SPECIFIED,CA,SONOMA,6097,Sonoma County
122,400158919,SFO-2017CACDFLNU008388,NONFED,ST-NASF,ST/C&L,USCACDF,California Department of Forestry & Fire Protection,CACDF,"Headquarters, California Department of Forestry & Fire Protection",,LNU008388,,FORD,,,,,,2017,8/29/2017 0:00,241,1602,Missing data/not specified/undetermined,Missing data/not specified/undetermined,,,,,0.1,A,38.349518,-122.91632,MISSING/NOT SPECIFIED,CA,SONOMA,6097,Sonoma County
123,400158920,SFO-2017CACDFLNU008824,NONFED,ST-NASF,ST/C&L,USCACDF,California Department of Forestry & Fire Protection,CACDF,"Headquarters, California Department of Forestry & Fire Protection",,LNU008824,,VISTA,,,,,,2017,9/8/2017 0:00,251,1053,Missing data/not specified/undetermined,Missing data/not specified/undetermined,,,,,0.01,A,38.470459,-123.024787,MISSING/NOT SPECIFIED,CA,SONOMA,6097,Sonoma County
124,400158921,SFO-2017CACDFLNU009092,NONFED,ST-NASF,ST/C&L,USCACDF,California Department of Forestry & Fire Protection,CACDF,"Headquarters, California Department of Forestry & Fire Protection",,LNU009092,,PALO ALTO DR / WOODLAND D,,,,,,2017,9/14/2017 0:00,257,2115,Missing data/not specified/undetermined,Missing data/not specified/undetermined,,,,,0.01,A,38.502829,-122.997383,MISSING/NOT SPECIFIED,CA,SONOMA,6097,Sonoma County
125,400158922,SFO-2017CACDFLNU009198,NONFED,ST-NASF,ST/C&L,USCACDF,California Department of Forestry & Fire Protection,CACDF,"Headquarters, California Department of Forestry & Fire Protection",,LNU009198,,MILL,,,,,,2017,9/17/2017 0:00,260,1401,Missing data/not specified/undetermined,Missing data/not specified/undetermined,,,,,0.06,A,38.598907,-122.967776,MISSING/NOT SPECIFIED,CA,SONOMA,6097,Sonoma County
126,400158923,SFO-2017CACDFLNU009460,NONFED,ST-NASF,ST/C&L,USCACDF,California Department of Forestry & Fire Protection,CACDF,"Headquarters, California Department of Forestry & Fire Protection",,LNU009460,,FURLONG,,,,,,2017,9/24/2017 0:00,267,1103,Missing data/not specified/undetermined,Missing data/not specified/undetermined,,,,,0.25,A,38.397004,-122.899295,MISSING/NOT SPECIFIED,CA,SONOMA,6097,Sonoma County
127,400158924,SFO-2017CACDFLNU009543,NONFED,ST-NASF,ST/C&L,USCACDF,California Department of Forestry & Fire Protection,CACDF,"Headquarters, California Department of Forestry & Fire Protection",,LNU009543,,MAYS CANYON RD  GUERNEVIL,,,,,,2017,9/26/2017 0:00,269,1236,Missing data/not specified/undetermined,Missing data/not specified/undetermined,,,,,0.01,A,38.495196,-122.990107,MISSING/NOT SPECIFIED,CA,SONOMA,6097,Sonoma County
128,400158925,SFO-2017CACDFLNU009805,NONFED,ST-NASF,ST/C&L,USCACDF,California Department of Forestry & Fire Protection,CACDF,"Headquarters, California Department of Forestry & Fire Protection",,LNU009805,,CREEK,,,,,,2017,10/2/2017 0:00,275,1641,Missing data/not specified/undetermined,Missing data/not specified/undetermined,,,,,0.01,A,38.539217,-122.644291,MISSING/NOT SPECIFIED,CA,SONOMA,6097,Sonoma County
129,400158926,SFO-2017CACDFLNU010024,NONFED,ST-NASF,ST/C&L,USCACDF,California Department of Forestry & Fire Protection,CACDF,"Headquarters, California Department of Forestry & Fire Protection",,LNU010024,,BENNETT,,,,,,2017,10/8/2017 0:00,281,1513,Missing data/not specified/undetermined,Missing data/not specified/undetermined,,,,,0.01,A,38.408074,-122.643983,MISSING/NOT SPECIFIED,CA,SONOMA,6097,Sonoma County
130,400158930,SFO-2017CACDFLNU010570,NONFED,ST-NASF,ST/C&L,USCACDF,California Department of Forestry & Fire Protection,CACDF,"Headquarters, California Department of Forestry & Fire Protection",,LNU010570,,HWY 116  N GUERNEVILLE,,,,,,2017,10/23/2017 0:00,296,423,Missing data/not specified/undetermined,Missing data/not specified/undetermined,,,,,0.01,A,38.499641,-122.993746,MISSING/NOT SPECIFIED,CA,SONOMA,6097,Sonoma County
131,400158931,SFO-2017CACDFLNU010870,NONFED,ST-NASF,ST/C&L,USCACDF,California Department of Forestry & Fire Protection,CACDF,"Headquarters, California Department of Forestry & Fire Protection",,LNU010870,,RIVER,,,,,,2017,10/31/2017 0:00,304,200,Missing data/not specified/undetermined,Missing data/not specified/undetermined,,,,,0.25,A,38.824782,-123.010899,MISSING/NOT SPECIFIED,CA,SONOMA,6097,Sonoma County
132,400158932,SFO-2017CACDFLNU001735,NONFED,ST-NASF,ST/C&L,USCACDF,California Department of Forestry & Fire Protection,CACDF,"Headquarters, California Department of Forestry & Fire Protection",,LNU001735,,,,,,,,2017,11/14/2017 0:00,318,915,Missing data/not specified/undetermined,Missing data/not specified/undetermined,,,,,0.01,A,38.400661,-122.563089,MISSING/NOT SPECIFIED,CA,SONOMA,6097,Sonoma County
133,400222961,ICS209_2017_7221998,INTERAGCY,IA-ICS209,ST/C&L,USCAMRN,Marin County Fire Department,CAMRN,Marin County Fire Department,,2957,,THIRTY SEVEN,2017_7221998_THIRTY SEVEN,,CA3815112243520171009,THIRTY SEVEN,,2017,10/9/2017 0:00,282,400,Missing data/not specified/undetermined,Missing data/not specified/undetermined,,,,,1660,F,38.15139,-122.43528,MISSING/NOT SPECIFIED,CA,Sonoma County,6097,Sonoma County
