OID_,FOD_ID,FPA_ID,SOURCE_SYSTEM_TYPE,SOURCE_SYSTEM,NWCG_REPORTING_AGENCY,NWCG_REPORTING_UNIT_ID,NWCG_REPORTING_UNIT_NAME,SOURCE_REPORTING_UNIT,SOURCE_REPORTING_UNIT_NAME,LOCAL_FIRE_REPORT_ID,LOCAL_INCIDENT_ID,FIRE_CODE,FIRE_NAME,ICS_209_PLUS_INCIDENT_JOIN_ID,ICS_209_PLUS_COMPLEX_JOIN_ID,MTBS_ID,MTBS_FIRE_NAME,COMPLEX_NAME,FIRE_YEAR,DISCOVERY_DATE,DISCOVERY_DOY,DISCOVERY_TIME,NWCG_CAUSE_CLASSIFICATION,NWCG_GENERAL_CAUSE,NWCG_CAUSE_AGE_CATEGORY,CONT_DATE,CONT_DOY,CONT_TIME,FIRE_SIZE,FIRE_SIZE_CLASS,LATITUDE,LONGITUDE,OWNER_DESCR,STATE,COUNTY,FIPS_CODE,FIPS_NAME
1,400015987,W-714324,FED,DOI-WFMI,BLM,USCACND,Central California District,CACND,Central California District,10045,,LE5R,NUNS,2017_7293146_NUNS,2017_7200218_SOUTHERN LNU COMPLEX,CA3838712252020171009,NUNS,SOUTHERN/CENTRAL LNU COMPLEX,2017,10/8/2017 0:00,281,2200,Human,Missing data/not specified/undetermined,,10/29/2017 0:00,302,1200,56556,G,38.4089,-122.47,PRIVATE,CA,Sonoma,6097,Sonoma County
2,400015989,W-714325,FED,DOI-WFMI,BLM,USCACND,Central California District,CACND,Central California District,10047,,LE5R,POCKET,2017_7290270_POCKET,2017_7293180_CENTRAL LNU COMPLEX,CA3874312290720171009,POCKET,CENTRAL LNU COMPLEX,2017,10/9/2017 0:00,282,330,Human,Missing data/not specified/undetermined,,10/29/2017 0:00,302,1200,17357,G,38.7661,-122.9069,PRIVATE,CA,Sonoma,6097,Sonoma County
3,400108848,SFO-2017CACDFLNU009015,NONFED,ST-NASF,ST/C&L,USCACDF,California Department of Forestry & Fire Protection,CACDF,"Headquarters, California Department of Forestry & Fire Protection",,LNU009015,,RED 2,,,,,,2017,9/13/2017 0:00,256,840,Natural,Natural,,9/13/2017 0:00,256,934,0.02,A,38.68815,-122.804683,MISSING/NOT SPECIFIED,CA,SONOMA,6097,Sonoma County
4,400113219,SFO-2017CACDFLNU004279,NONFED,ST-NASF,ST/C&L,USCACDF,California Department of Forestry & Fire Protection,CACDF,"Headquarters, California Department of Forestry & Fire Protection",,LNU004279,,HALF MOON ST /N CASTLE RD,,,,,,2017,5/18/2017 0:00,138,1347,Human,Equipment and vehicle use,,5/18/2017 0:00,138,1410,0.01,A,38.299529,-122.433569,MISSING/NOT SPECIFIED,CA,SONOMA,6097,Sonoma County
5,400113427,SFO-2017CACDFLNU005216,NONFED,ST-NASF,ST/C&L,USCACDF,California Department of Forestry & Fire Protection,CACDF,"Headquarters, California Department of Forestry & Fire Protection",,LNU005216,,WINE CREEK RD  GEYSERVILL,,,,,,2017,6/13/2017 0:00,164,1145,Human,Equipment and vehicle use,,6/13/2017 0:00,164,1215,0.14,A,38.659783,-122.95305,MISSING/NOT SPECIFIED,CA,SONOMA,6097,Sonoma County
6,400113458,SFO-2017CACDFLNU005289,NONFED,ST-NASF,ST/C&L,USCACDF,California Department of Forestry & Fire Protection,CACDF,"Headquarters, California Department of Forestry & Fire Protection",,LNU005289,,PLEASANTS,,,,,,2017,6/15/2017 0:00,166,1402,Human,Equipment and vehicle use,,6/15/2017 0:00,166,1454,0.02,A,38.537568,-122.769045,MISSING/NOT SPECIFIED,CA,SONOMA,6097,Sonoma County
7,400113695,SFO-2017CACDFLNU006118,NONFED,ST-NASF,ST/C&L,USCACDF,California Department of Forestry & Fire Protection,CACDF,"Headquarters, California Department of Forestry & Fire Protection",,LNU006118,,PEPPER,,,,,,2017,7/3/2017 0:00,184,1522,Human,Equipment and vehicle use,,7/3/2017 0:00,184,1630,0.4,B,38.284066,-122.720013,MISSING/NOT SPECIFIED,CA,SONOMA,6097,Sonoma County
8,400114015,SFO-2017CACDFLNU007039,NONFED,ST-NASF,ST/C&L,USCACDF,California Department of Forestry & Fire Protection,CACDF,"Headquarters, California Department of Forestry & Fire Protection",,LNU007039,,CANFIELD,,,,,,2017,7/26/2017 0:00,207,1211,Human,Equipment and vehicle use,,7/26/2017 0:00,207,1315,3.57,B,38.32153,-122.785571,MISSING/NOT SPECIFIED,CA,SONOMA,6097,Sonoma County
9,400114369,SFO-2017CACDFLNU008454,NONFED,ST-NASF,ST/C&L,USCACDF,California Department of Forestry & Fire Protection,CACDF,"Headquarters, California Department of Forestry & Fire Protection",,LNU008454,,JACOBSEN LN  PENNGROVE,,,,,,2017,8/31/2017 0:00,243,859,Human,Equipment and vehicle use,,8/31/2017 0:00,243,918,0.01,A,38.29819,-122.647008,MISSING/NOT SPECIFIED,CA,SONOMA,6097,Sonoma County
10,400114591,SFO-2017CACDFLNU009709,NONFED,ST-NASF,ST/C&L,USCACDF,California Department of Forestry & Fire Protection,CACDF,"Headquarters, California Department of Forestry & Fire Protection",,LNU009709,,PEPPER,,,,,,2017,9/30/2017 0:00,273,1420,Human,Equipment and vehicle use,,9/30/2017 0:00,273,1434,0.01,A,38.257895,-122.763158,MISSING/NOT SPECIFIED,CA,SONOMA,6097,Sonoma County
11,400116538,SFO-2017CACDFLNU004308,NONFED,ST-NASF,ST/C&L,USCACDF,California Department of Forestry & Fire Protection,CACDF,"Headquarters, California Department of Forestry & Fire Protection",,LNU004308,,NELLIGAN RD  GLEN_ELLEN,,,,,,2017,5/19/2017 0:00,139,819,Human,Equipment and vehicle use,,,,,0.01,A,38.414311,-122.511462,MISSING/NOT SPECIFIED,CA,SONOMA,6097,Sonoma County
12,400116539,SFO-2017CACDFLNU005343,NONFED,ST-NASF,ST/C&L,USCACDF,California Department of Forestry & Fire Protection,CACDF,"Headquarters, California Department of Forestry & Fire Protection",,LNU005343,,CUNNINGHAM,,,,,,2017,6/16/2017 0:00,167,1447,Human,Equipment and vehicle use,,,,,0.43,B,38.364667,-122.8055,MISSING/NOT SPECIFIED,CA,SONOMA,6097,Sonoma County
13,400116540,SFO-2017CACDFLNU005611,NONFED,ST-NASF,ST/C&L,USCACDF,California Department of Forestry & Fire Protection,CACDF,"Headquarters, California Department of Forestry & Fire Protection",,LNU005611,,KNIGHTS,,,,,,2017,6/21/2017 0:00,172,1707,Human,Equipment and vehicle use,,,,,3.56,B,38.65066,-122.729126,MISSING/NOT SPECIFIED,CA,SONOMA,6097,Sonoma County
14,400116541,SFO-2017CACDFLNU000111,NONFED,ST-NASF,ST/C&L,USCACDF,California Department of Forestry & Fire Protection,CACDF,"Headquarters, California Department of Forestry & Fire Protection",,LNU000111,,,,,,,,2017,6/24/2017 0:00,175,1145,Human,Equipment and vehicle use,,,,,0.24,A,38.349607,-122.607587,MISSING/NOT SPECIFIED,CA,SONOMA,6097,Sonoma County
15,400116542,SFO-2017CACDFLNU005988,NONFED,ST-NASF,ST/C&L,USCACDF,California Department of Forestry & Fire Protection,CACDF,"Headquarters, California Department of Forestry & Fire Protection",,LNU005988,,HOG,,,,,,2017,6/30/2017 0:00,181,1326,Human,Equipment and vehicle use,,,,,8.2,B,38.775416,-123.052059,MISSING/NOT SPECIFIED,CA,SONOMA,6097,Sonoma County
16,400116543,SFO-2017CACDFLNU006329,NONFED,ST-NASF,ST/C&L,USCACDF,California Department of Forestry & Fire Protection,CACDF,"Headquarters, California Department of Forestry & Fire Protection",,LNU006329,,ADOBE,2017_7200218_SOUTHERN LNU COMPLEX,2017_7200218_SOUTHERN LNU COMPLEX,,,SOUTHERN/CENTRAL LNU COMPLEX,2017,7/8/2017 0:00,189,1117,Human,Equipment and vehicle use,,,,,0.15,A,38.292914,-122.651808,MISSING/NOT SPECIFIED,CA,SONOMA,6097,Sonoma County
17,400116544,SFO-2017CACDFLNU007076,NONFED,ST-NASF,ST/C&L,USCACDF,California Department of Forestry & Fire Protection,CACDF,"Headquarters, California Department of Forestry & Fire Protection",,LNU007076,,MORELLI,,,,,,2017,7/27/2017 0:00,208,1200,Human,Equipment and vehicle use,,,,,0.01,A,38.313634,-122.605199,MISSING/NOT SPECIFIED,CA,SONOMA,6097,Sonoma County
18,400116545,SFO-2017CACDFLNU007368,NONFED,ST-NASF,ST/C&L,USCACDF,California Department of Forestry & Fire Protection,CACDF,"Headquarters, California Department of Forestry & Fire Protection",,LNU007368,,NORRBOM,2017_7200218_SOUTHERN LNU COMPLEX,2017_7200218_SOUTHERN LNU COMPLEX,,,SOUTHERN/CENTRAL LNU COMPLEX,2017,8/3/2017 0:00,215,1400,Human,Equipment and vehicle use,,,,,1.3,B,38.33414,-122.449098,MISSING/NOT SPECIFIED,CA,SONOMA,6097,Sonoma County
19,400116546,SFO-2017CACDFLNU008394,NONFED,ST-NASF,ST/C&L,USCACDF,California Department of Forestry & Fire Protection,CACDF,"Headquarters, California Department of Forestry & Fire Protection",,LNU008394,,LAKEVILLE,,,,,,2017,8/29/2017 0:00,241,1734,Human,Equipment and vehicle use,,,,,0.01,A,38.1733,-122.523105,MISSING/NOT SPECIFIED,CA,SONOMA,6097,Sonoma County
20,400118177,SFO-2017CACDFLNU005599,NONFED,ST-NASF,ST/C&L,USCACDF,California Department of Forestry & Fire Protection,CACDF,"Headquarters, California Department of Forestry & Fire Protection",,LNU005599,,WATER,,,,,,2017,6/21/2017 0:00,172,1320,Human,Smoking,,,,,0.01,A,38.510082,-122.727213,MISSING/NOT SPECIFIED,CA,SONOMA,6097,Sonoma County
21,400127770,SFO-2017CACDFLNU008425,NONFED,ST-NASF,ST/C&L,USCACDF,California Department of Forestry & Fire Protection,CACDF,"Headquarters, California Department of Forestry & Fire Protection",,LNU008425,,SPRING,,,,,,2017,8/30/2017 0:00,242,1348,Human,Debris and open burning,,8/30/2017 0:00,242,1421,12,C,38.223898,-122.714686,MISSING/NOT SPECIFIED,CA,SONOMA,6097,Sonoma County
22,400133927,SFO-2017CACDFLNU002444,NONFED,ST-NASF,ST/C&L,USCACDF,California Department of Forestry & Fire Protection,CACDF,"Headquarters, California Department of Forestry & Fire Protection",,LNU002444,,STAGE GULCH RD / ADOBE RD,,,,,,2017,3/18/2017 0:00,77,747,Human,Debris and open burning,,,,,0.01,A,38.242731,-122.505542,MISSING/NOT SPECIFIED,CA,SONOMA,6097,Sonoma County
23,400133928,SFO-2017CACDFLNU005033,NONFED,ST-NASF,ST/C&L,USCACDF,California Department of Forestry & Fire Protection,CACDF,"Headquarters, California Department of Forestry & Fire Protection",,LNU005033,,BEI RD  CAZADERO,,,,,,2017,6/8/2017 0:00,159,1218,Human,Debris and open burning,,,,,0.01,A,38.533609,-123.089892,MISSING/NOT SPECIFIED,CA,SONOMA,6097,Sonoma County
24,400133929,SFO-2017CACDFLNU005808,NONFED,ST-NASF,ST/C&L,USCACDF,California Department of Forestry & Fire Protection,CACDF,"Headquarters, California Department of Forestry & Fire Protection",,LNU005808,,PETALUMA HILL RD  COTATI,,,,,,2017,6/26/2017 0:00,177,1132,Human,Debris and open burning,,,,,7,B,38.33848,-122.666858,MISSING/NOT SPECIFIED,CA,SONOMA,6097,Sonoma County
25,400133930,SFO-2017CACDFLNU007717,NONFED,ST-NASF,ST/C&L,USCACDF,California Department of Forestry & Fire Protection,CACDF,"Headquarters, California Department of Forestry & Fire Protection",,LNU007717,,WILLOW CREEK RD / HWY 1,,,,,,2017,8/12/2017 0:00,224,1307,Human,Debris and open burning,,,,,0.01,A,38.434631,-123.101647,MISSING/NOT SPECIFIED,CA,SONOMA,6097,Sonoma County
26,400133931,SFO-2017CACDFLNU007992,NONFED,ST-NASF,ST/C&L,USCACDF,California Department of Forestry & Fire Protection,CACDF,"Headquarters, California Department of Forestry & Fire Protection",,LNU007992,,HARRISON GRADE RD  OCCIDE,,,,,,2017,8/19/2017 0:00,231,1255,Human,Debris and open burning,,,,,0.1,A,38.417537,-122.936052,MISSING/NOT SPECIFIED,CA,SONOMA,6097,Sonoma County
27,400133932,SFO-2017CACDFLNU008227,NONFED,ST-NASF,ST/C&L,USCACDF,California Department of Forestry & Fire Protection,CACDF,"Headquarters, California Department of Forestry & Fire Protection",,LNU008227,,SYLVAN WY  MONTE_RIO,,,,,,2017,8/26/2017 0:00,238,1026,Human,Debris and open burning,,,,,0.01,A,38.464465,-123.040312,MISSING/NOT SPECIFIED,CA,SONOMA,6097,Sonoma County
28,400133933,SFO-2017CACDFLNU008283,NONFED,ST-NASF,ST/C&L,USCACDF,California Department of Forestry & Fire Protection,CACDF,"Headquarters, California Department of Forestry & Fire Protection",,LNU008283,,MADRONE,,,,,,2017,8/27/2017 0:00,239,1220,Human,Debris and open burning,,,,,0.12,A,38.338612,-122.512793,MISSING/NOT SPECIFIED,CA,SONOMA,6097,Sonoma County
29,400133934,SFO-2017CACDFLNU008842,NONFED,ST-NASF,ST/C&L,USCACDF,California Department of Forestry & Fire Protection,CACDF,"Headquarters, California Department of Forestry & Fire Protection",,LNU008842,,HWY 1   JENNER,,,,,,2017,9/8/2017 0:00,251,2116,Human,Debris and open burning,,,,,0.01,A,38.321215,-122.909821,MISSING/NOT SPECIFIED,CA,SONOMA,6097,Sonoma County
30,400133935,SFO-2017CACDFLNU009863,NONFED,ST-NASF,ST/C&L,USCACDF,California Department of Forestry & Fire Protection,CACDF,"Headquarters, California Department of Forestry & Fire Protection",,LNU009863,,EASTSIDE RD  WINDSOR,,,,,,2017,10/4/2017 0:00,277,933,Human,Debris and open burning,,,,,0.01,A,38.523705,-122.848217,MUNICIPAL/LOCAL,CA,SONOMA,6097,Sonoma County
31,400133936,SFO-2017CACDFLNU010503,NONFED,ST-NASF,ST/C&L,USCACDF,California Department of Forestry & Fire Protection,CACDF,"Headquarters, California Department of Forestry & Fire Protection",,LNU010503,,SEQUOIA RD  GUERNEVILLE,,,,,,2017,10/20/2017 0:00,293,1538,Human,Debris and open burning,,,,,0.01,A,38.523709,-122.983209,MISSING/NOT SPECIFIED,CA,SONOMA,6097,Sonoma County
32,400133937,SFO-2017CACDFLNU010803,NONFED,ST-NASF,ST/C&L,USCACDF,California Department of Forestry & Fire Protection,CACDF,"Headquarters, California Department of Forestry & Fire Protection",,LNU010803,,TARWATER RD  SANTA_ROSA,,,,,,2017,10/29/2017 0:00,302,709,Human,Debris and open burning,,,,,0.01,A,38.51743,-122.60409,MISSING/NOT SPECIFIED,CA,SONOMA,6097,Sonoma County
33,400133938,SFO-2017CACDFLNU011728,NONFED,ST-NASF,ST/C&L,USCACDF,California Department of Forestry & Fire Protection,CACDF,"Headquarters, California Department of Forestry & Fire Protection",,LNU011728,,CANFIELD RD  BLOOMFIELD,,,,,,2017,11/22/2017 0:00,326,1417,Human,Debris and open burning,,,,,0.1,A,38.340081,-122.802889,MISSING/NOT SPECIFIED,CA,SONOMA,6097,Sonoma County
34,400138635,SFO-2017CACDFLNU010224,NONFED,ST-NASF,ST/C&L,USCACDF,California Department of Forestry & Fire Protection,CACDF,"Headquarters, California Department of Forestry & Fire Protection",,LNU010224,,WESTSIDE,,,,,,2017,10/13/2017 0:00,286,1526,Human,Arson/incendiarism,,10/13/2017 0:00,286,1549,0.25,A,38.516359,-122.890911,MISSING/NOT SPECIFIED,CA,SONOMA,6097,Sonoma County
35,400138654,SFO-2017CACDFLNU010345,NONFED,ST-NASF,ST/C&L,USCACDF,California Department of Forestry & Fire Protection,CACDF,"Headquarters, California Department of Forestry & Fire Protection",,LNU010345,,STUMP,,,,,,2017,10/16/2017 0:00,289,1944,Human,Arson/incendiarism,,10/16/2017 0:00,289,1955,0.01,A,38.583374,-123.33479,STATE,CA,SONOMA,6097,Sonoma County
36,400138675,SFO-2017CACDFLNU010432,NONFED,ST-NASF,ST/C&L,USCACDF,California Department of Forestry & Fire Protection,CACDF,"Headquarters, California Department of Forestry & Fire Protection",,LNU010432,,DRY CREEK RD  GEYSERVILLE,,,,,,2017,10/18/2017 0:00,291,1907,Human,Arson/incendiarism,,10/18/2017 0:00,291,1943,0.3,B,38.675817,-122.913517,MISSING/NOT SPECIFIED,CA,SONOMA,6097,Sonoma County
37,400139454,SFO-2017CACDFLNU003917,NONFED,ST-NASF,ST/C&L,USCACDF,California Department of Forestry & Fire Protection,CACDF,"Headquarters, California Department of Forestry & Fire Protection",,LNU003917,,GEYSERS RD / RIVER RD,,,,,,2017,5/6/2017 0:00,126,1710,Human,Arson/incendiarism,,,,,0.01,A,38.825755,-122.999624,MISSING/NOT SPECIFIED,CA,SONOMA,6097,Sonoma County
38,400139455,SFO-2017CACDFLNU006799,NONFED,ST-NASF,ST/C&L,USCACDF,California Department of Forestry & Fire Protection,CACDF,"Headquarters, California Department of Forestry & Fire Protection",,LNU006799,,CHERRY,,,,,,2017,7/19/2017 0:00,200,2025,Human,Arson/incendiarism,,,,,0.01,A,38.499599,-123.022659,MISSING/NOT SPECIFIED,CA,SONOMA,6097,Sonoma County
39,400139456,SFO-2017CACDFLNU007551,NONFED,ST-NASF,ST/C&L,USCACDF,California Department of Forestry & Fire Protection,CACDF,"Headquarters, California Department of Forestry & Fire Protection",,LNU007551,,EASTSIDE 2,,,,,,2017,8/7/2017 0:00,219,2018,Human,Arson/incendiarism,,,,,0.05,A,38.544517,-122.845317,MISSING/NOT SPECIFIED,CA,SONOMA,6097,Sonoma County
40,400139457,SFO-2017CACDFLNU007949,NONFED,ST-NASF,ST/C&L,USCACDF,California Department of Forestry & Fire Protection,CACDF,"Headquarters, California Department of Forestry & Fire Protection",,LNU007949,,NEELEY,,,,,,2017,8/18/2017 0:00,230,1426,Human,Arson/incendiarism,,,,,0.01,A,38.489833,-123.004667,MISSING/NOT SPECIFIED,CA,SONOMA,6097,Sonoma County
41,400139458,SFO-2017CACDFLNU010177,NONFED,ST-NASF,ST/C&L,USCACDF,California Department of Forestry & Fire Protection,CACDF,"Headquarters, California Department of Forestry & Fire Protection",,LNU010177,,EAST,,,,,,2017,10/12/2017 0:00,285,535,Human,Arson/incendiarism,,,,,0.8,B,38.532078,-122.848553,MUNICIPAL/LOCAL,CA,SONOMA,6097,Sonoma County
42,400145200,SFO-2017CACDFLNU004515,NONFED,ST-NASF,ST/C&L,USCACDF,California Department of Forestry & Fire Protection,CACDF,"Headquarters, California Department of Forestry & Fire Protection",,LNU004515,,GEYSERS,,,,,,2017,5/24/2017 0:00,144,1710,Human,Missing data/not specified/undetermined,,5/24/2017 0:00,144,2255,9.5,B,38.826967,-123.001017,MISSING/NOT SPECIFIED,CA,SONOMA,6097,Sonoma County
43,400146351,SFO-2017CACDFLNU005809,NONFED,ST-NASF,ST/C&L,USCACDF,California Department of Forestry & Fire Protection,CACDF,"Headquarters, California Department of Forestry & Fire Protection",,LNU005809,,CLOVERDALE,,,,,,2017,6/26/2017 0:00,177,1146,Human,Missing data/not specified/undetermined,,6/26/2017 0:00,177,1532,2.31,B,38.83592,-123.02065,MISSING/NOT SPECIFIED,CA,SONOMA,6097,Sonoma County
44,400146558,SFO-2017CACDFLNU005992,NONFED,ST-NASF,ST/C&L,USCACDF,California Department of Forestry & Fire Protection,CACDF,"Headquarters, California Department of Forestry & Fire Protection",,LNU005992,,ARMSTRONG WOODS RD / PALO,,,,,,2017,6/30/2017 0:00,181,1640,Human,Missing data/not specified/undetermined,,6/30/2017 0:00,181,1647,0.01,A,38.502857,-122.997565,MISSING/NOT SPECIFIED,CA,SONOMA,6097,Sonoma County
45,400146638,SFO-2017CACDFLNU006060,NONFED,ST-NASF,ST/C&L,USCACDF,California Department of Forestry & Fire Protection,CACDF,"Headquarters, California Department of Forestry & Fire Protection",,LNU006060,,MOUNTAIN,,,,,,2017,7/2/2017 0:00,183,1241,Human,Missing data/not specified/undetermined,,7/2/2017 0:00,183,1345,3.4,B,38.374693,-122.624682,MISSING/NOT SPECIFIED,CA,SONOMA,6097,Sonoma County
46,400146809,SFO-2017CACDFLNU006178,NONFED,ST-NASF,ST/C&L,USCACDF,California Department of Forestry & Fire Protection,CACDF,"Headquarters, California Department of Forestry & Fire Protection",,LNU006178,,JEWETT,,,,,,2017,7/4/2017 0:00,185,1719,Human,Missing data/not specified/undetermined,,7/4/2017 0:00,185,1730,0.3,B,38.285869,-122.709969,MISSING/NOT SPECIFIED,CA,SONOMA,6097,Sonoma County
47,400147701,SFO-2017CACDFLNU006844,NONFED,ST-NASF,ST/C&L,USCACDF,California Department of Forestry & Fire Protection,CACDF,"Headquarters, California Department of Forestry & Fire Protection",,LNU006844,,CLOVERDALE,,,,,,2017,7/21/2017 0:00,202,1318,Human,Missing data/not specified/undetermined,,7/21/2017 0:00,202,1420,2.5,B,38.832793,-123.016522,MISSING/NOT SPECIFIED,CA,SONOMA,6097,Sonoma County
48,400148107,SFO-2017CACDFLNU007254,NONFED,ST-NASF,ST/C&L,USCACDF,California Department of Forestry & Fire Protection,CACDF,"Headquarters, California Department of Forestry & Fire Protection",,LNU007254,,INDEPENDENCE,,,,,,2017,7/31/2017 0:00,212,1107,Human,Missing data/not specified/undetermined,,7/31/2017 0:00,212,1736,4.25,B,38.679894,-122.880806,MISSING/NOT SPECIFIED,CA,SONOMA,6097,Sonoma County
49,400148108,SFO-2017CACDFLNU007256,NONFED,ST-NASF,ST/C&L,USCACDF,California Department of Forestry & Fire Protection,CACDF,"Headquarters, California Department of Forestry & Fire Protection",,LNU007256,,INDEPENDENCE 2,,,,,,2017,7/31/2017 0:00,212,1135,Human,Missing data/not specified/undetermined,,7/31/2017 0:00,212,1736,2.5,B,38.679894,-122.880806,MISSING/NOT SPECIFIED,CA,SONOMA,6097,Sonoma County
50,400148200,SFO-2017CACDFLNU007364,NONFED,ST-NASF,ST/C&L,USCACDF,California Department of Forestry & Fire Protection,CACDF,"Headquarters, California Department of Forestry & Fire Protection",,LNU007364,,LAKEVILLE,,,,,,2017,8/3/2017 0:00,215,1121,Human,Missing data/not specified/undetermined,,8/3/2017 0:00,215,1221,37,C,38.152196,-122.487576,MISSING/NOT SPECIFIED,CA,SONOMA,6097,Sonoma County
51,400148709,SFO-2017CACDFLNU008072,NONFED,ST-NASF,ST/C&L,USCACDF,California Department of Forestry & Fire Protection,CACDF,"Headquarters, California Department of Forestry & Fire Protection",,LNU008072,,HIATT,,,,,,2017,8/21/2017 0:00,233,1631,Human,Missing data/not specified/undetermined,,8/21/2017 0:00,233,1703,0.34,B,38.76614,-123.016995,MISSING/NOT SPECIFIED,CA,SONOMA,6097,Sonoma County
52,400148825,SFO-2017CACDFLNU008194,NONFED,ST-NASF,ST/C&L,USCACDF,California Department of Forestry & Fire Protection,CACDF,"Headquarters, California Department of Forestry & Fire Protection",,LNU008194,,FREESTONE,,,,,,2017,8/25/2017 0:00,237,1236,Human,Missing data/not specified/undetermined,,8/25/2017 0:00,237,1259,0.5,B,38.378034,-122.926386,MISSING/NOT SPECIFIED,CA,SONOMA,6097,Sonoma County
53,400148931,SFO-2017CACDFLNU008288,NONFED,ST-NASF,ST/C&L,USCACDF,California Department of Forestry & Fire Protection,CACDF,"Headquarters, California Department of Forestry & Fire Protection",,LNU008288,,BODEGA,,,,,,2017,8/27/2017 0:00,239,1317,Human,Missing data/not specified/undetermined,,8/28/2017 0:00,240,1248,18,C,38.263567,-122.723223,MISSING/NOT SPECIFIED,CA,SONOMA,6097,Sonoma County
54,400148998,SFO-2017CACDFLNU008433,NONFED,ST-NASF,ST/C&L,USCACDF,California Department of Forestry & Fire Protection,CACDF,"Headquarters, California Department of Forestry & Fire Protection",,LNU008433,,BENNETT,,,,,,2017,8/30/2017 0:00,242,1636,Human,Missing data/not specified/undetermined,,8/30/2017 0:00,242,1701,1,B,38.386222,-122.600533,MISSING/NOT SPECIFIED,CA,SONOMA,6097,Sonoma County
55,400149075,SFO-2017CACDFLNU008539,NONFED,ST-NASF,ST/C&L,USCACDF,California Department of Forestry & Fire Protection,CACDF,"Headquarters, California Department of Forestry & Fire Protection",,LNU008539,,LILA,,,,,,2017,9/1/2017 0:00,244,1837,Human,Missing data/not specified/undetermined,,9/1/2017 0:00,244,1855,1.2,B,38.264762,-122.60175,MISSING/NOT SPECIFIED,CA,SONOMA,6097,Sonoma County
56,400149504,SFO-2017CACDFLNU009078,NONFED,ST-NASF,ST/C&L,USCACDF,California Department of Forestry & Fire Protection,CACDF,"Headquarters, California Department of Forestry & Fire Protection",,LNU009078,,SHAHAN,,,,,,2017,9/14/2017 0:00,257,1400,Human,Missing data/not specified/undetermined,,9/14/2017 0:00,257,1435,1,B,38.814588,-123.020862,MISSING/NOT SPECIFIED,CA,SONOMA,6097,Sonoma County
57,400149616,SFO-2017CACDFLNU009251,NONFED,ST-NASF,ST/C&L,USCACDF,California Department of Forestry & Fire Protection,CACDF,"Headquarters, California Department of Forestry & Fire Protection",,LNU009251,,GULCH,,,,,,2017,9/18/2017 0:00,261,1759,Human,Missing data/not specified/undetermined,,9/18/2017 0:00,261,1908,9,B,38.22201,-122.538851,STATE,CA,SONOMA,6097,Sonoma County
58,400149779,SFO-2017CACDFLNU009480,NONFED,ST-NASF,ST/C&L,USCACDF,California Department of Forestry & Fire Protection,CACDF,"Headquarters, California Department of Forestry & Fire Protection",,LNU009480,,JOY,,,,,,2017,9/24/2017 0:00,267,1648,Human,Missing data/not specified/undetermined,,9/24/2017 0:00,267,2200,1,B,38.384154,-122.967747,MISSING/NOT SPECIFIED,CA,SONOMA,6097,Sonoma County
59,400149929,SFO-2017CACDFLNU009772,NONFED,ST-NASF,ST/C&L,USCACDF,California Department of Forestry & Fire Protection,CACDF,"Headquarters, California Department of Forestry & Fire Protection",,LNU009772,,TRINITY,,,,,,2017,10/2/2017 0:00,275,417,Human,Missing data/not specified/undetermined,,10/2/2017 0:00,275,553,0.1,A,38.386886,-122.493344,MISSING/NOT SPECIFIED,CA,SONOMA,6097,Sonoma County
60,400149950,SFO-2017CACDFLNU009816,NONFED,ST-NASF,ST/C&L,USCACDF,California Department of Forestry & Fire Protection,CACDF,"Headquarters, California Department of Forestry & Fire Protection",,LNU009816,,OLD,,,,,,2017,10/3/2017 0:00,276,505,Human,Missing data/not specified/undetermined,,10/3/2017 0:00,276,539,0.35,B,38.514873,-122.98337,MISSING/NOT SPECIFIED,CA,SONOMA,6097,Sonoma County
61,400150183,SFO-2017CACDFLNU010267,NONFED,ST-NASF,ST/C&L,USCACDF,California Department of Forestry & Fire Protection,CACDF,"Headquarters, California Department of Forestry & Fire Protection",,LNU010267,,SKAGGS,,,,,,2017,10/14/2017 0:00,287,1914,Human,Missing data/not specified/undetermined,,10/14/2017 0:00,287,2004,0.5,B,38.651906,-123.399441,MISSING/NOT SPECIFIED,CA,SONOMA,6097,Sonoma County
62,400154267,SFO-2017CACDFLNU002259,NONFED,ST-NASF,ST/C&L,USCACDF,California Department of Forestry & Fire Protection,CACDF,"Headquarters, California Department of Forestry & Fire Protection",,LNU002259,,IRIS,,,,,,2017,3/11/2017 0:00,70,1530,Human,Missing data/not specified/undetermined,,,,,0.1,A,38.716622,-123.456328,COUNTY,CA,SONOMA,6097,Sonoma County
63,400154268,SFO-2017CACDFLNU004120,NONFED,ST-NASF,ST/C&L,USCACDF,California Department of Forestry & Fire Protection,CACDF,"Headquarters, California Department of Forestry & Fire Protection",,LNU004120,,RIDGE OAKS RD  GEYSERVILL,,,,,,2017,5/13/2017 0:00,133,1457,Human,Missing data/not specified/undetermined,,,,,0.01,A,38.732349,-122.902506,MISSING/NOT SPECIFIED,CA,SONOMA,6097,Sonoma County
64,400154269,SFO-2017CACDFLNU004176,NONFED,ST-NASF,ST/C&L,USCACDF,California Department of Forestry & Fire Protection,CACDF,"Headquarters, California Department of Forestry & Fire Protection",,LNU004176,,BODEGA AV  TWO_ROCK,,,,,,2017,5/15/2017 0:00,135,1433,Human,Missing data/not specified/undetermined,,,,,0.01,A,38.257701,-122.779665,MISSING/NOT SPECIFIED,CA,SONOMA,6097,Sonoma County
65,400154270,SFO-2017CACDFLNU004325,NONFED,ST-NASF,ST/C&L,USCACDF,California Department of Forestry & Fire Protection,CACDF,"Headquarters, California Department of Forestry & Fire Protection",,LNU004325,,SWEETWATER,,,,,,2017,5/19/2017 0:00,139,1614,Human,Missing data/not specified/undetermined,,,,,0.75,B,38.545759,-122.980809,MISSING/NOT SPECIFIED,CA,SONOMA,6097,Sonoma County
66,400154271,SFO-2017CACDFLNU004364,NONFED,ST-NASF,ST/C&L,USCACDF,California Department of Forestry & Fire Protection,CACDF,"Headquarters, California Department of Forestry & Fire Protection",,LNU004364,,FORT ROSS RD  FORT_ROSS,,,,,,2017,5/20/2017 0:00,140,1511,Human,Missing data/not specified/undetermined,,,,,0.25,A,38.525946,-123.175197,MISSING/NOT SPECIFIED,CA,SONOMA,6097,Sonoma County
67,400154272,SFO-2017CACDFLNU004382,NONFED,ST-NASF,ST/C&L,USCACDF,California Department of Forestry & Fire Protection,CACDF,"Headquarters, California Department of Forestry & Fire Protection",,LNU004382,,VIEWCREST DR  SONOMA,,,,,,2017,5/21/2017 0:00,141,132,Human,Missing data/not specified/undetermined,,,,,0.2,A,38.299675,-122.553128,MISSING/NOT SPECIFIED,CA,SONOMA,6097,Sonoma County
68,400154273,SFO-2017CACDFLNU004580,NONFED,ST-NASF,ST/C&L,USCACDF,California Department of Forestry & Fire Protection,CACDF,"Headquarters, California Department of Forestry & Fire Protection",,LNU004580,,BONNESS RD  SCHELLVILLE,,,,,,2017,5/26/2017 0:00,146,1652,Human,Missing data/not specified/undetermined,,,,,0.05,A,38.248537,-122.482333,MISSING/NOT SPECIFIED,CA,SONOMA,6097,Sonoma County
69,400154274,SFO-2017CACDFLNU004650,NONFED,ST-NASF,ST/C&L,USCACDF,California Department of Forestry & Fire Protection,CACDF,"Headquarters, California Department of Forestry & Fire Protection",,LNU004650,,PEPPER RD  PETALUMA,,,,,,2017,5/28/2017 0:00,148,1439,Human,Missing data/not specified/undetermined,,,,,0.01,A,38.283661,-122.705652,MISSING/NOT SPECIFIED,CA,SONOMA,6097,Sonoma County
70,400154275,SFO-2017CACDFLNU004876,NONFED,ST-NASF,ST/C&L,USCACDF,California Department of Forestry & Fire Protection,CACDF,"Headquarters, California Department of Forestry & Fire Protection",,LNU004876,,TREATMENT,,,,,,2017,6/3/2017 0:00,154,1632,Human,Missing data/not specified/undetermined,,,,,0.15,A,38.800613,-123.012933,MISSING/NOT SPECIFIED,CA,SONOMA,6097,Sonoma County
71,400154276,SFO-2017CACDFLNU005283,NONFED,ST-NASF,ST/C&L,USCACDF,California Department of Forestry & Fire Protection,CACDF,"Headquarters, California Department of Forestry & Fire Protection",,LNU005283,,YURT,,,,,,2017,6/15/2017 0:00,166,1146,Human,Missing data/not specified/undetermined,,,,,0.6,B,38.784167,-122.965278,MISSING/NOT SPECIFIED,CA,SONOMA,6097,Sonoma County
72,400154277,SFO-2017CACDFLNU005358,NONFED,ST-NASF,ST/C&L,USCACDF,California Department of Forestry & Fire Protection,CACDF,"Headquarters, California Department of Forestry & Fire Protection",,LNU005358,,MARK WEST SPRINGS RD  SAN,,,,,,2017,6/16/2017 0:00,167,1952,Human,Missing data/not specified/undetermined,,,,,0.03,A,38.548256,-122.720649,MISSING/NOT SPECIFIED,CA,SONOMA,6097,Sonoma County
73,400154278,SFO-2017CACDFLNU005396,NONFED,ST-NASF,ST/C&L,USCACDF,California Department of Forestry & Fire Protection,CACDF,"Headquarters, California Department of Forestry & Fire Protection",,LNU005396,,CANYON,,,,,,2017,6/17/2017 0:00,168,1706,Human,Missing data/not specified/undetermined,,,,,0.01,A,38.522011,-122.982573,MISSING/NOT SPECIFIED,CA,SONOMA,6097,Sonoma County
74,400154279,SFO-2017CACDFLNU005984,NONFED,ST-NASF,ST/C&L,USCACDF,California Department of Forestry & Fire Protection,CACDF,"Headquarters, California Department of Forestry & Fire Protection",,LNU005984,,ROBLAR,,,,,,2017,6/30/2017 0:00,181,1252,Human,Missing data/not specified/undetermined,,,,,6,B,38.301133,-122.71545,MISSING/NOT SPECIFIED,CA,SONOMA,6097,Sonoma County
75,400154280,SFO-2017CACDFLNU006891,NONFED,ST-NASF,ST/C&L,USCACDF,California Department of Forestry & Fire Protection,CACDF,"Headquarters, California Department of Forestry & Fire Protection",,LNU006891,,SIRI,,,,,,2017,7/22/2017 0:00,203,1723,Human,Missing data/not specified/undetermined,,,,,0.01,A,38.487452,-123.025468,MISSING/NOT SPECIFIED,CA,SONOMA,6097,Sonoma County
76,400154281,SFO-2017CACDFLNU007012,NONFED,ST-NASF,ST/C&L,USCACDF,California Department of Forestry & Fire Protection,CACDF,"Headquarters, California Department of Forestry & Fire Protection",,LNU007012,,SPRINGS,,,,,,2017,7/25/2017 0:00,206,1515,Human,Missing data/not specified/undetermined,,,,,2.36,B,38.371146,-122.537311,MISSING/NOT SPECIFIED,CA,SONOMA,6097,Sonoma County
77,400154282,SFO-2017CACDFLNU007014,NONFED,ST-NASF,ST/C&L,USCACDF,California Department of Forestry & Fire Protection,CACDF,"Headquarters, California Department of Forestry & Fire Protection",,LNU007014,,WOLF RUN / WARM SPRINGS R,,,,,,2017,7/25/2017 0:00,206,1536,Human,Missing data/not specified/undetermined,,,,,0.5,B,38.370896,-122.537514,MISSING/NOT SPECIFIED,CA,SONOMA,6097,Sonoma County
78,400154283,SFO-2017CACDFLNU007283,NONFED,ST-NASF,ST/C&L,USCACDF,California Department of Forestry & Fire Protection,CACDF,"Headquarters, California Department of Forestry & Fire Protection",,LNU007283,,CHALK HILL RD / WRIGHT RA,,,,,,2017,8/1/2017 0:00,213,1008,Human,Missing data/not specified/undetermined,,,,,0.04,A,38.582222,-122.764444,MISSING/NOT SPECIFIED,CA,SONOMA,6097,Sonoma County
79,400154284,SFO-2017CACDFLNU007299,NONFED,ST-NASF,ST/C&L,USCACDF,California Department of Forestry & Fire Protection,CACDF,"Headquarters, California Department of Forestry & Fire Protection",,LNU007299,,ROCK,,,,,,2017,8/1/2017 0:00,213,1457,Human,Missing data/not specified/undetermined,,,,,0.1,A,38.25842,-122.759853,MISSING/NOT SPECIFIED,CA,SONOMA,6097,Sonoma County
80,400154285,SFO-2017CACDFLNU007328,NONFED,ST-NASF,ST/C&L,USCACDF,California Department of Forestry & Fire Protection,CACDF,"Headquarters, California Department of Forestry & Fire Protection",,LNU007328,,BODEGA AV / SPRING HILL R,,,,,,2017,8/2/2017 0:00,214,1058,Human,Missing data/not specified/undetermined,,,,,0.25,A,38.257701,-122.779665,MISSING/NOT SPECIFIED,CA,SONOMA,6097,Sonoma County
81,400154286,SFO-2017CACDFLNU007752,NONFED,ST-NASF,ST/C&L,USCACDF,California Department of Forestry & Fire Protection,CACDF,"Headquarters, California Department of Forestry & Fire Protection",,LNU007752,,ROCKPILE,,,,,,2017,8/13/2017 0:00,225,37,Human,Missing data/not specified/undetermined,,,,,2.7,B,38.716516,-123.049309,UNDEFINED FEDERAL,CA,SONOMA,6097,Sonoma County
82,400154287,SFO-2017CACDFLNU007869,NONFED,ST-NASF,ST/C&L,USCACDF,California Department of Forestry & Fire Protection,CACDF,"Headquarters, California Department of Forestry & Fire Protection",,LNU007869,,SONOMA MOUNTAIN RD  PENNG,,,,,,2017,8/15/2017 0:00,227,2330,Human,Missing data/not specified/undetermined,,,,,0.01,A,38.33458,-122.592815,MISSING/NOT SPECIFIED,CA,SONOMA,6097,Sonoma County
83,400154288,SFO-2017CACDFLNU007988,NONFED,ST-NASF,ST/C&L,USCACDF,California Department of Forestry & Fire Protection,CACDF,"Headquarters, California Department of Forestry & Fire Protection",,LNU007988,,HWY 116  N/ BROOKSIDE LN,,,,,,2017,8/19/2017 0:00,231,1147,Human,Missing data/not specified/undetermined,,,,,0.01,A,38.501024,-123.005161,MISSING/NOT SPECIFIED,CA,SONOMA,6097,Sonoma County
84,400154289,SFO-2017CACDFLNU008202,NONFED,ST-NASF,ST/C&L,USCACDF,California Department of Forestry & Fire Protection,CACDF,"Headquarters, California Department of Forestry & Fire Protection",,LNU008202,,BODEGA HWY  FREESTONE,,,,,,2017,8/25/2017 0:00,237,1453,Human,Missing data/not specified/undetermined,,,,,0.01,A,38.375685,-122.905164,MISSING/NOT SPECIFIED,CA,SONOMA,6097,Sonoma County
85,400154290,SFO-2017CACDFLNU008309,NONFED,ST-NASF,ST/C&L,USCACDF,California Department of Forestry & Fire Protection,CACDF,"Headquarters, California Department of Forestry & Fire Protection",,LNU008309,,MCLANE AV  GUERNEVILLE,,,,,,2017,8/28/2017 0:00,240,124,Human,Missing data/not specified/undetermined,,,,,0.1,A,38.495542,-123.013216,MISSING/NOT SPECIFIED,CA,SONOMA,6097,Sonoma County
86,400154291,SFO-2017CACDFLNU008351,NONFED,ST-NASF,ST/C&L,USCACDF,California Department of Forestry & Fire Protection,CACDF,"Headquarters, California Department of Forestry & Fire Protection",,LNU008351,,LESLIE,,,,,,2017,8/28/2017 0:00,240,1824,Human,Missing data/not specified/undetermined,,,,,0.01,A,38.549156,-122.711412,MISSING/NOT SPECIFIED,CA,SONOMA,6097,Sonoma County
87,400154292,SFO-2017CACDFLNU008376,NONFED,ST-NASF,ST/C&L,USCACDF,California Department of Forestry & Fire Protection,CACDF,"Headquarters, California Department of Forestry & Fire Protection",,LNU008376,,LAUGHLIN RD / ARMSTRONG W,,,,,,2017,8/29/2017 0:00,241,1201,Human,Missing data/not specified/undetermined,,,,,0.01,A,38.512816,-122.995539,MISSING/NOT SPECIFIED,CA,SONOMA,6097,Sonoma County
88,400154293,SFO-2017CACDFLNU008363,NONFED,ST-NASF,ST/C&L,USCACDF,California Department of Forestry & Fire Protection,CACDF,"Headquarters, California Department of Forestry & Fire Protection",,LNU008363,,BONNEAU RD / FREMONT DR,,,,,,2017,8/29/2017 0:00,241,1519,Human,Missing data/not specified/undetermined,,,,,0.4,B,38.236201,-122.461507,MISSING/NOT SPECIFIED,CA,SONOMA,6097,Sonoma County
89,400154294,SFO-2017CACDFLNU008508,NONFED,ST-NASF,ST/C&L,USCACDF,California Department of Forestry & Fire Protection,CACDF,"Headquarters, California Department of Forestry & Fire Protection",,LNU008508,,MARINERS DR  THE_SEA_RANC,,,,,,2017,9/1/2017 0:00,244,1003,Human,Missing data/not specified/undetermined,,,,,0.01,A,38.706765,-123.447279,MISSING/NOT SPECIFIED,CA,SONOMA,6097,Sonoma County
90,400154295,SFO-2017CACDFLNU008537,NONFED,ST-NASF,ST/C&L,USCACDF,California Department of Forestry & Fire Protection,CACDF,"Headquarters, California Department of Forestry & Fire Protection",,LNU008537,,CARRIGER RD / GROVE ST,,,,,,2017,9/1/2017 0:00,244,1819,Human,Missing data/not specified/undetermined,,,,,0.16,A,38.293969,-122.503054,MISSING/NOT SPECIFIED,CA,SONOMA,6097,Sonoma County
91,400154296,SFO-2017CACDFLNU008588,NONFED,ST-NASF,ST/C&L,USCACDF,California Department of Forestry & Fire Protection,CACDF,"Headquarters, California Department of Forestry & Fire Protection",,LNU008588,,ARNOLD DR / MARTIN ST,,,,,,2017,9/2/2017 0:00,245,1539,Human,Missing data/not specified/undetermined,,,,,0.1,A,38.344622,-122.514335,MISSING/NOT SPECIFIED,CA,SONOMA,6097,Sonoma County
92,400154297,SFO-2017CACDFLNU008604,NONFED,ST-NASF,ST/C&L,USCACDF,California Department of Forestry & Fire Protection,CACDF,"Headquarters, California Department of Forestry & Fire Protection",,LNU008604,,COLEMAN VALLEY RD / HWY 1,,,,,,2017,9/2/2017 0:00,245,1944,Human,Missing data/not specified/undetermined,,,,,0.01,A,38.365044,-123.070617,MISSING/NOT SPECIFIED,CA,SONOMA,6097,Sonoma County
93,400154298,SFO-2017CACDFLNU008665,NONFED,ST-NASF,ST/C&L,USCACDF,California Department of Forestry & Fire Protection,CACDF,"Headquarters, California Department of Forestry & Fire Protection",,LNU008665,,STEWARTS,,,,,,2017,9/4/2017 0:00,247,319,Human,Missing data/not specified/undetermined,,,,,1.57,B,38.669109,-123.033837,MISSING/NOT SPECIFIED,CA,SONOMA,6097,Sonoma County
94,400154299,SFO-2017CACDFLNU008905,NONFED,ST-NASF,ST/C&L,USCACDF,California Department of Forestry & Fire Protection,CACDF,"Headquarters, California Department of Forestry & Fire Protection",,LNU008905,,FISH HEAD POINT JENNER,,,,,,2017,9/10/2017 0:00,253,916,Human,Missing data/not specified/undetermined,,,,,0.01,A,38.462793,-123.150394,STATE,CA,SONOMA,6097,Sonoma County
95,400154300,SFO-2017CACDFLNU008933,NONFED,ST-NASF,ST/C&L,USCACDF,California Department of Forestry & Fire Protection,CACDF,"Headquarters, California Department of Forestry & Fire Protection",,LNU008933,,ADOBE RD  PENNGROVE,,,,,,2017,9/11/2017 0:00,254,225,Human,Missing data/not specified/undetermined,,,,,0.1,A,38.25246,-122.57748,STATE,CA,SONOMA,6097,Sonoma County
96,400154301,SFO-2017CACDFLNU010000,NONFED,ST-NASF,ST/C&L,USCACDF,California Department of Forestry & Fire Protection,CACDF,"Headquarters, California Department of Forestry & Fire Protection",,LNU010000,,RIEBLI RD  SANTA_ROSA,,,,,,2017,10/7/2017 0:00,280,2154,Human,Missing data/not specified/undetermined,,,,,0.01,A,38.51004,-122.717018,MISSING/NOT SPECIFIED,CA,SONOMA,6097,Sonoma County
97,400154302,SFO-2017CACDFLNU010140,NONFED,ST-NASF,ST/C&L,USCACDF,California Department of Forestry & Fire Protection,CACDF,"Headquarters, California Department of Forestry & Fire Protection",,LNU010140,,VISTA,,,,,,2017,10/11/2017 0:00,284,621,Human,Missing data/not specified/undetermined,,,,,0.1,A,38.252117,-122.717614,MISSING/NOT SPECIFIED,CA,SONOMA,6097,Sonoma County
98,400154303,SFO-2017CACDFLNU010585,NONFED,ST-NASF,ST/C&L,USCACDF,California Department of Forestry & Fire Protection,CACDF,"Headquarters, California Department of Forestry & Fire Protection",,LNU010585,,CLEAVELAND,,,,,,2017,10/23/2017 0:00,296,1344,Human,Missing data/not specified/undetermined,,,,,0.01,A,38.229175,-122.664112,MISSING/NOT SPECIFIED,CA,SONOMA,6097,Sonoma County
99,400154304,SFO-2017CACDFLNU010595,NONFED,ST-NASF,ST/C&L,USCACDF,California Department of Forestry & Fire Protection,CACDF,"Headquarters, California Department of Forestry & Fire Protection",,LNU010595,,FRATES,,,,,,2017,10/23/2017 0:00,296,1711,Human,Missing data/not specified/undetermined,,,,,0.01,A,38.25156,-122.578315,MISSING/NOT SPECIFIED,CA,SONOMA,6097,Sonoma County
100,400154305,SFO-2017CACDFLNU010774,NONFED,ST-NASF,ST/C&L,USCACDF,California Department of Forestry & Fire Protection,CACDF,"Headquarters, California Department of Forestry & Fire Protection",,LNU010774,,BAY,,,,,,2017,10/28/2017 0:00,301,1426,Human,Missing data/not specified/undetermined,,,,,0.01,A,38.345434,-123.010523,MISSING/NOT SPECIFIED,CA,SONOMA,6097,Sonoma County
101,400154306,SFO-2017CACDFLNU010893,NONFED,ST-NASF,ST/C&L,USCACDF,California Department of Forestry & Fire Protection,CACDF,"Headquarters, California Department of Forestry & Fire Protection",,LNU010893,,GREEN VALLEY RD  GRATON,,,,,,2017,10/31/2017 0:00,304,1251,Human,Missing data/not specified/undetermined,,,,,0.5,B,38.46147,-122.944922,MISSING/NOT SPECIFIED,CA,SONOMA,6097,Sonoma County
102,400154307,SFO-2017CACDFLNU010980,NONFED,ST-NASF,ST/C&L,USCACDF,California Department of Forestry & Fire Protection,CACDF,"Headquarters, California Department of Forestry & Fire Protection",,LNU010980,,WARM,,,,,,2017,11/2/2017 0:00,306,1341,Human,Missing data/not specified/undetermined,,,,,0.01,A,38.393036,-122.549485,MISSING/NOT SPECIFIED,CA,SONOMA,6097,Sonoma County
103,400154308,SFO-2017CACDFLNU011080,NONFED,ST-NASF,ST/C&L,USCACDF,California Department of Forestry & Fire Protection,CACDF,"Headquarters, California Department of Forestry & Fire Protection",,LNU011080,,MEEKER,,,,,,2017,11/5/2017 0:00,309,1158,Human,Missing data/not specified/undetermined,,,,,0.01,A,38.43891,-122.974946,MISSING/NOT SPECIFIED,CA,SONOMA,6097,Sonoma County
104,400154309,SFO-2017CACDFLNU011126,NONFED,ST-NASF,ST/C&L,USCACDF,California Department of Forestry & Fire Protection,CACDF,"Headquarters, California Department of Forestry & Fire Protection",,LNU011126,,CARRIGER,,,,,,2017,11/6/2017 0:00,310,1511,Human,Missing data/not specified/undetermined,,,,,0.1,A,38.298738,-122.503004,MISSING/NOT SPECIFIED,CA,SONOMA,6097,Sonoma County
105,400154310,SFO-2017CACDFLNU011135,NONFED,ST-NASF,ST/C&L,USCACDF,California Department of Forestry & Fire Protection,CACDF,"Headquarters, California Department of Forestry & Fire Protection",,LNU011135,,TOYON,,,,,,2017,11/6/2017 0:00,310,1737,Human,Missing data/not specified/undetermined,,,,,0.01,A,38.785733,-122.969267,MISSING/NOT SPECIFIED,CA,SONOMA,6097,Sonoma County
106,400155839,SFO-2017CACDFLNU004233,NONFED,ST-NASF,ST/C&L,USCACDF,California Department of Forestry & Fire Protection,CACDF,"Headquarters, California Department of Forestry & Fire Protection",,LNU004233,,HIGHWAY,,,,,,2017,5/17/2017 0:00,137,122,Missing data/not specified/undetermined,Missing data/not specified/undetermined,,5/17/2017 0:00,137,151,0.25,A,38.820919,-123.012022,COUNTY,CA,SONOMA,6097,Sonoma County
107,400156770,SFO-2017CACDFLNU007982,NONFED,ST-NASF,ST/C&L,USCACDF,California Department of Forestry & Fire Protection,CACDF,"Headquarters, California Department of Forestry & Fire Protection",,LNU007982,,NEELEY,,,,,,2017,8/19/2017 0:00,231,1007,Missing data/not specified/undetermined,Missing data/not specified/undetermined,,8/19/2017 0:00,231,1103,1,B,38.492955,-123.007005,MISSING/NOT SPECIFIED,CA,SONOMA,6097,Sonoma County
108,400156862,SFO-2017CACDFLNU008529,NONFED,ST-NASF,ST/C&L,USCACDF,California Department of Forestry & Fire Protection,CACDF,"Headquarters, California Department of Forestry & Fire Protection",,LNU008529,,RANCH,,,,,,2017,9/1/2017 0:00,244,1524,Missing data/not specified/undetermined,Missing data/not specified/undetermined,,9/1/2017 0:00,244,1550,0.12,A,38.317517,-122.440114,MISSING/NOT SPECIFIED,CA,SONOMA,6097,Sonoma County
109,400156868,SFO-2017CACDFLNU008536,NONFED,ST-NASF,ST/C&L,USCACDF,California Department of Forestry & Fire Protection,CACDF,"Headquarters, California Department of Forestry & Fire Protection",,LNU008536,,SPRINGS,,,,,,2017,9/1/2017 0:00,244,1747,Missing data/not specified/undetermined,Missing data/not specified/undetermined,,9/2/2017 0:00,245,433,13.34,C,38.764833,-123.089,UNDEFINED FEDERAL,CA,SONOMA,6097,Sonoma County
110,400156939,SFO-2017CACDFLNU009169,NONFED,ST-NASF,ST/C&L,USCACDF,California Department of Forestry & Fire Protection,CACDF,"Headquarters, California Department of Forestry & Fire Protection",,LNU009169,,MILL,,,,,,2017,9/16/2017 0:00,259,1958,Missing data/not specified/undetermined,Missing data/not specified/undetermined,,9/16/2017 0:00,259,2121,0.02,A,38.591991,-122.962417,MISSING/NOT SPECIFIED,CA,SONOMA,6097,Sonoma County
111,400156951,SFO-2017CACDFLNU009263,NONFED,ST-NASF,ST/C&L,USCACDF,California Department of Forestry & Fire Protection,CACDF,"Headquarters, California Department of Forestry & Fire Protection",,LNU009263,,HWY 128   CLOVERDALE,,,,,,2017,9/19/2017 0:00,262,122,Missing data/not specified/undetermined,Missing data/not specified/undetermined,,9/19/2017 0:00,262,134,0.5,B,38.822953,-123.018804,MISSING/NOT SPECIFIED,CA,SONOMA,6097,Sonoma County
112,400157062,SFO-2017CACDFLNU009994,NONFED,ST-NASF,ST/C&L,USCACDF,California Department of Forestry & Fire Protection,CACDF,"Headquarters, California Department of Forestry & Fire Protection",,LNU009994,,FORT,,,,,,2017,10/7/2017 0:00,280,1913,Missing data/not specified/undetermined,Missing data/not specified/undetermined,,10/8/2017 0:00,281,25,18,C,38.51847,-123.246411,STATE,CA,SONOMA,6097,Sonoma County
113,400157093,SFO-2017CACDFLNU010195,NONFED,ST-NASF,ST/C&L,USCACDF,California Department of Forestry & Fire Protection,CACDF,"Headquarters, California Department of Forestry & Fire Protection",,LNU010195,,PRESTON,,,,,,2017,10/12/2017 0:00,285,1648,Missing data/not specified/undetermined,Missing data/not specified/undetermined,,10/12/2017 0:00,285,1712,0.01,A,38.846633,-123.015483,MISSING/NOT SPECIFIED,CA,SONOMA,6097,Sonoma County
114,400158911,SFO-2017CACDFLNU004088,NONFED,ST-NASF,ST/C&L,USCACDF,California Department of Forestry & Fire Protection,CACDF,"Headquarters, California Department of Forestry & Fire Protection",,LNU004088,,RACEWAY,,,,,,2017,5/12/2017 0:00,132,1054,Missing data/not specified/undetermined,Missing data/not specified/undetermined,,,,,0.01,A,38.151217,-122.4494,MISSING/NOT SPECIFIED,CA,SONOMA,6097,Sonoma County
115,400158912,SFO-2017CACDFLNU004615,NONFED,ST-NASF,ST/C&L,USCACDF,California Department of Forestry & Fire Protection,CACDF,"Headquarters, California Department of Forestry & Fire Protection",,LNU004615,,BROTHERS,,,,,,2017,5/27/2017 0:00,147,1439,Missing data/not specified/undetermined,Missing data/not specified/undetermined,,,,,0.02,A,38.323668,-123.038569,MISSING/NOT SPECIFIED,CA,SONOMA,6097,Sonoma County
116,400158913,SFO-2017CACDFLNU004914,NONFED,ST-NASF,ST/C&L,USCACDF,California Department of Forestry & Fire Protection,CACDF,"Headquarters, California Department of Forestry & Fire Protection",,LNU004914,,ELY,,,,,,2017,6/4/2017 0:00,155,2047,Missing data/not specified/undetermined,Missing data/not specified/undetermined,,,,,0.01,A,38.23894,-122.58772,MISSING/NOT SPECIFIED,CA,SONOMA,6097,Sonoma County
117,400158914,SFO-2017CACDFLNU005543,NONFED,ST-NASF,ST/C&L,USCACDF,California Department of Forestry & Fire Protection,CACDF,"Headquarters, California Department of Forestry & Fire Protection",,LNU005543,,ARNOLD,,,,,,2017,6/20/2017 0:00,171,1341,Missing data/not specified/undetermined,Missing data/not specified/undetermined,,,,,0.02,A,38.17295,-122.455833,MISSING/NOT SPECIFIED,CA,SONOMA,6097,Sonoma County
118,400158915,SFO-2017CACDFLNU005738,NONFED,ST-NASF,ST/C&L,USCACDF,California Department of Forestry & Fire Protection,CACDF,"Headquarters, California Department of Forestry & Fire Protection",,LNU005738,,ROBLAR,,,,,,2017,6/24/2017 0:00,175,1359,Missing data/not specified/undetermined,Missing data/not specified/undetermined,,,,,0.01,A,38.306413,-122.820428,MISSING/NOT SPECIFIED,CA,SONOMA,6097,Sonoma County
119,400158916,SFO-2017CACDFLNU007343,NONFED,ST-NASF,ST/C&L,USCACDF,California Department of Forestry & Fire Protection,CACDF,"Headquarters, California Department of Forestry & Fire Protection",,LNU007343,,CAMP,,,,,,2017,8/2/2017 0:00,214,1633,Missing data/not specified/undetermined,Missing data/not specified/undetermined,,,,,0.03,A,38.547035,-122.835891,MISSING/NOT SPECIFIED,CA,SONOMA,6097,Sonoma County
120,400158917,SFO-2017CACDFLNU007765,NONFED,ST-NASF,ST/C&L,USCACDF,California Department of Forestry & Fire Protection,CACDF,"Headquarters, California Department of Forestry & Fire Protection",,LNU007765,,CDF GLEN ELLEN FFS GLEN_E,,,,,,2017,8/13/2017 0:00,225,1014,Missing data/not specified/undetermined,Missing data/not specified/undetermined,,,,,0.01,A,38.364429,-122.510043,MISSING/NOT SPECIFIED,CA,SONOMA,6097,Sonoma County
121,400158918,SFO-2017CACDFLNU008284,NONFED,ST-NASF,ST/C&L,USCACDF,California Department of Forestry & Fire Protection,CACDF,"Headquarters, California Department of Forestry & Fire Protection",,LNU008284,,JOY,,,,,,2017,8/27/2017 0:00,239,1234,Missing data/not specified/undetermined,Missing data/not specified/undetermined,,,,,0.03,A,38.373056,-122.9625,MISSING/NOT SPECIFIED,CA,SONOMA,6097,Sonoma County
122,400158919,SFO-2017CACDFLNU008388,NONFED,ST-NASF,ST/C&L,USCACDF,California Department of Forestry & Fire Protection,CACDF,"Headquarters, California Department of Forestry & Fire Protection",,LNU008388,,FORD,,,,,,2017,8/29/2017 0:00,241,1602,Missing data/not specified/undetermined,Missing data/not specified/undetermined,,,,,0.1,A,38.349518,-122.91632,MISSING/NOT SPECIFIED,CA,SONOMA,6097,Sonoma County
123,400158920,SFO-2017CACDFLNU008824,NONFED,ST-NASF,ST/C&L,USCACDF,California Department of Forestry & Fire Protection,CACDF,"Headquarters, California Department of Forestry & Fire Protection",,LNU008824,,VISTA,,,,,,2017,9/8/2017 0:00,251,1053,Missing data/not specified/undetermined,Missing data/not specified/undetermined,,,,,0.01,A,38.470459,-123.024787,MISSING/NOT SPECIFIED,CA,SONOMA,6097,Sonoma County
124,400158921,SFO-2017CACDFLNU009092,NONFED,ST-NASF,ST/C&L,USCACDF,California Department of Forestry & Fire Protection,CACDF,"Headquarters, California Department of Forestry & Fire Protection",,LNU009092,,PALO ALTO DR / WOODLAND D,,,,,,2017,9/14/2017 0:00,257,2115,Missing data/not specified/undetermined,Missing data/not specified/undetermined,,,,,0.01,A,38.502829,-122.997383,MISSING/NOT SPECIFIED,CA,SONOMA,6097,Sonoma County
125,400158922,SFO-2017CACDFLNU009198,NONFED,ST-NASF,ST/C&L,USCACDF,California Department of Forestry & Fire Protection,CACDF,"Headquarters, California Department of Forestry & Fire Protection",,LNU009198,,MILL,,,,,,2017,9/17/2017 0:00,260,1401,Missing data/not specified/undetermined,Missing data/not specified/undetermined,,,,,0.06,A,38.598907,-122.967776,MISSING/NOT SPECIFIED,CA,SONOMA,6097,Sonoma County
126,400158923,SFO-2017CACDFLNU009460,NONFED,ST-NASF,ST/C&L,USCACDF,California Department of Forestry & Fire Protection,CACDF,"Headquarters, California Department of Forestry & Fire Protection",,LNU009460,,FURLONG,,,,,,2017,9/24/2017 0:00,267,1103,Missing data/not specified/undetermined,Missing data/not specified/undetermined,,,,,0.25,A,38.397004,-122.899295,MISSING/NOT SPECIFIED,CA,SONOMA,6097,Sonoma County
127,400158924,SFO-2017CACDFLNU009543,NONFED,ST-NASF,ST/C&L,USCACDF,California Department of Forestry & Fire Protection,CACDF,"Headquarters, California Department of Forestry & Fire Protection",,LNU009543,,MAYS CANYON RD  GUERNEVIL,,,,,,2017,9/26/2017 0:00,269,1236,Missing data/not specified/undetermined,Missing data/not specified/undetermined,,,,,0.01,A,38.495196,-122.990107,MISSING/NOT SPECIFIED,CA,SONOMA,6097,Sonoma County
128,400158925,SFO-2017CACDFLNU009805,NONFED,ST-NASF,ST/C&L,USCACDF,California Department of Forestry & Fire Protection,CACDF,"Headquarters, California Department of Forestry & Fire Protection",,LNU009805,,CREEK,,,,,,2017,10/2/2017 0:00,275,1641,Missing data/not specified/undetermined,Missing data/not specified/undetermined,,,,,0.01,A,38.539217,-122.644291,MISSING/NOT SPECIFIED,CA,SONOMA,6097,Sonoma County
129,400158926,SFO-2017CACDFLNU010024,NONFED,ST-NASF,ST/C&L,USCACDF,California Department of Forestry & Fire Protection,CACDF,"Headquarters, California Department of Forestry & Fire Protection",,LNU010024,,BENNETT,,,,,,2017,10/8/2017 0:00,281,1513,Missing data/not specified/undetermined,Missing data/not specified/undetermined,,,,,0.01,A,38.408074,-122.643983,MISSING/NOT SPECIFIED,CA,SONOMA,6097,Sonoma County
130,400158930,SFO-2017CACDFLNU010570,NONFED,ST-NASF,ST/C&L,USCACDF,California Department of Forestry & Fire Protection,CACDF,"Headquarters, California Department of Forestry & Fire Protection",,LNU010570,,HWY 116  N GUERNEVILLE,,,,,,2017,10/23/2017 0:00,296,423,Missing data/not specified/undetermined,Missing data/not specified/undetermined,,,,,0.01,A,38.499641,-122.993746,MISSING/NOT SPECIFIED,CA,SONOMA,6097,Sonoma County
131,400158931,SFO-2017CACDFLNU010870,NONFED,ST-NASF,ST/C&L,USCACDF,California Department of Forestry & Fire Protection,CACDF,"Headquarters, California Department of Forestry & Fire Protection",,LNU010870,,RIVER,,,,,,2017,10/31/2017 0:00,304,200,Missing data/not specified/undetermined,Missing data/not specified/undetermined,,,,,0.25,A,38.824782,-123.010899,MISSING/NOT SPECIFIED,CA,SONOMA,6097,Sonoma County
132,400158932,SFO-2017CACDFLNU001735,NONFED,ST-NASF,ST/C&L,USCACDF,California Department of Forestry & Fire Protection,CACDF,"Headquarters, California Department of Forestry & Fire Protection",,LNU001735,,,,,,,,2017,11/14/2017 0:00,318,915,Missing data/not specified/undetermined,Missing data/not specified/undetermined,,,,,0.01,A,38.400661,-122.563089,MISSING/NOT SPECIFIED,CA,SONOMA,6097,Sonoma County
133,400222961,ICS209_2017_7221998,INTERAGCY,IA-ICS209,ST/C&L,USCAMRN,Marin County Fire Department,CAMRN,Marin County Fire Department,,2957,,THIRTY SEVEN,2017_7221998_THIRTY SEVEN,,CA3815112243520171009,THIRTY SEVEN,,2017,10/9/2017 0:00,282,400,Missing data/not specified/undetermined,Missing data/not specified/undetermined,,,,,1660,F,38.15139,-122.43528,MISSING/NOT SPECIFIED,CA,Sonoma County,6097,Sonoma County
